{
"type": "FeatureCollection",
"crs": { "type": "name", "properties": { "name": "urn:ogc:def:crs:OGC:1.3:CRS84" } },
                                                                                
"features": [
{ "type": "Feature", "properties": { "NAME": "Benning Park", "ADDRESS": "51st and Fitch Sts., SE", "Area_Acres": 8.9114793822599996 }, "geometry": { "type": "Point", "coordinates": [ -76.92823239711467, 38.879780550146265 ] } },
{ "type": "Feature", "properties": { "NAME": "Langdon Park", "ADDRESS": "18th St. and Mills Ave., to Hamlin and Franklin Sts., NE", "Area_Acres": 20.008913486099999 }, "geometry": { "type": "Point", "coordinates": [ -76.97569128290084, 38.926514487947529 ] } },
{ "type": "Feature", "properties": { "NAME": "Fort Stanton", "ADDRESS": "north of Erie St., between Pearson Pl. and 16th St., SE", "Area_Acres": 8.5291895607899999 }, "geometry": { "type": "Point", "coordinates": [ -76.978714211031644, 38.858187109980634 ] } },
{ "type": "Feature", "properties": { "NAME": "DC Therapeutic", "ADDRESS": "3030 G St., SE", "Area_Acres": 4.7066492378199998 }, "geometry": { "type": "Point", "coordinates": [ -76.96284361375028, 38.881048575610372 ] } },
{ "type": "Feature", "properties": { "NAME": "Banneker", "ADDRESS": "Georgia Ave. and Euclid St., NW", "Area_Acres": 13.201956623899999 }, "geometry": { "type": "Point", "coordinates": [ -77.023304112568908, 38.922461507451132 ] } },
{ "type": "Feature", "properties": { "NAME": "Bald Eagle", "ADDRESS": "Nichols and Southern Aves., SW", "Area_Acres": 4.5149919558000002 }, "geometry": { "type": "Point", "coordinates": [ -77.010174445085184, 38.818245154038514 ] } },
{ "type": "Feature", "properties": { "NAME": "Brentwood Park", "ADDRESS": "6th St., between New York and Florida Aves., NE", "Area_Acres": 5.0991762813400001 }, "geometry": { "type": "Point", "coordinates": [ -76.995717652530018, 38.908500581167409 ] } },
{ "type": "Feature", "properties": { "NAME": "Garrison", "ADDRESS": "R St.", "Area_Acres": 0.179540293662 }, "geometry": { "type": "Point", "coordinates": [ -77.028456085818945, 38.912821280426726 ] } },
{ "type": "Feature", "properties": { "NAME": "Keene Park", "ADDRESS": "Ft. Totten Park to Barnard Hill, east of Blair Rd. and Gallati", "Area_Acres": 2.2221983618399999 }, "geometry": { "type": "Point", "coordinates": [ -77.006575030568413, 38.954059051991941 ] } },
{ "type": "Feature", "properties": { "NAME": "Book Hill Park", "ADDRESS": "Wisconsin Ave. and R St., NW", "Area_Acres": 1.43889416441 }, "geometry": { "type": "Point", "coordinates": [ -77.065972513517863, 38.913175725620498 ] } },
{ "type": "Feature", "properties": { "NAME": "DPR Headquarters", "ADDRESS": "16th and Lamont Sts., NW", "Area_Acres": 3.3580084287899998 }, "geometry": { "type": "Point", "coordinates": [ -77.035642282104604, 38.930215741771711 ] } },
{ "type": "Feature", "properties": { "NAME": "Garfield Park", "ADDRESS": "F St. and Virginia Ave., between 1st and 3rd Sts., SE", "Area_Acres": 6.926384444 }, "geometry": { "type": "Point", "coordinates": [ -77.003744286848203, 38.881532376171521 ] } },
{ "type": "Feature", "properties": { "NAME": "Georgetown", "ADDRESS": "Volta Pl. and Q St., to 33rd and 34th Sts., NW", "Area_Acres": 2.6369340382700002 }, "geometry": { "type": "Point", "coordinates": [ -77.067127176014466, 38.910246301158644 ] } },
{ "type": "Feature", "properties": { "NAME": "Harry Thomas", "ADDRESS": "Lincoln Rd. and 2nd St., to R and T Sts., NE", "Area_Acres": 4.5431975326699998 }, "geometry": { "type": "Point", "coordinates": [ -77.007206806641619, 38.914444000412161 ] } },
{ "type": "Feature", "properties": { "NAME": "Edgewood", "ADDRESS": "Douglas St., between Franklin St. and Lincoln Rd., NE", "Area_Acres": 5.6864869375899998 }, "geometry": { "type": "Point", "coordinates": [ -77.002423696843138, 38.924555386572621 ] } },
{ "type": "Feature", "properties": { "NAME": "Randall", "ADDRESS": "west of S. Capitol St., between G and K Sts., SW", "Area_Acres": 8.7600536859000009 }, "geometry": { "type": "Point", "coordinates": [ -77.01026879654799, 38.88051960101452 ] } },
{ "type": "Feature", "properties": { "NAME": "Kelly Miller Park", "ADDRESS": "49th and 50th Sts., Brooks Pl., NE", "Area_Acres": 10.944488875699999 }, "geometry": { "type": "Point", "coordinates": [ -76.931307731633211, 38.894265118622229 ] } },
{ "type": "Feature", "properties": { "NAME": null, "ADDRESS": "Glenbrook Rd. and Rockwood Pkwy., NW", "Area_Acres": 0.29918988998599999 }, "geometry": { "type": "Point", "coordinates": [ -77.09961480964499, 38.935313597891323 ] } },
{ "type": "Feature", "properties": { "NAME": null, "ADDRESS": "18th St. and Argyle Terr., NW", "Area_Acres": 0.18599868013400001 }, "geometry": { "type": "Point", "coordinates": [ -77.041583309706894, 38.944293797965969 ] } },
{ "type": "Feature", "properties": { "NAME": "Mitchell Park", "ADDRESS": "23rd and S Sts., NW", "Area_Acres": 2.2559241457799999 }, "geometry": { "type": "Point", "coordinates": [ -77.049816570965532, 38.914477421116402 ] } },
{ "type": "Feature", "properties": { "NAME": "Marvin Caplan Memorial Park", "ADDRESS": "Alaska Ave., between Holly and 13th Sts., NW", "Area_Acres": 0.28602993022500001 }, "geometry": { "type": "Point", "coordinates": [ -77.029927723882707, 38.980606249348718 ] } },
{ "type": "Feature", "properties": { "NAME": null, "ADDRESS": "Military Rd., between Belt Rd. and 42nd St., NW", "Area_Acres": 0.15129485654700001 }, "geometry": { "type": "Point", "coordinates": [ -77.081810168410811, 38.961232684851687 ] } },
{ "type": "Feature", "properties": { "NAME": null, "ADDRESS": "Wisconsin Ave., between 42nd and Fessenden Sts., NW", "Area_Acres": 0.276213460538 }, "geometry": { "type": "Point", "coordinates": [ -77.082197035883141, 38.954407460678766 ] } },
{ "type": "Feature", "properties": { "NAME": "Payne", "ADDRESS": "C St., between 14th and 15th Sts. SE", "Area_Acres": 0.43644330091900002 }, "geometry": { "type": "Point", "coordinates": [ -76.98464804004476, 38.885048942425591 ] } },
{ "type": "Feature", "properties": { "NAME": "Fort Greble", "ADDRESS": "South Capitol and 2nd Sts., SE and SW", "Area_Acres": 5.5237399508599996 }, "geometry": { "type": "Point", "coordinates": [ -77.014473873065285, 38.827316196951578 ] } },
{ "type": "Feature", "properties": { "NAME": "Congress Heights", "ADDRESS": "7th St., south of Alabama Ave., SE", "Area_Acres": 4.27360294048 }, "geometry": { "type": "Point", "coordinates": [ -76.9966128611686, 38.842392405606937 ] } },
{ "type": "Feature", "properties": { "NAME": "Douglass", "ADDRESS": "Douglass Rec Ctr. (Ft. Stanton Park to St. Elizabeth Hospital)", "Area_Acres": 5.4777303400099999 }, "geometry": { "type": "Point", "coordinates": [ -76.978046100439158, 38.852594447075461 ] } },
{ "type": "Feature", "properties": { "NAME": "Hillcrest", "ADDRESS": "Alabama Ave., west of 32nd St., SE", "Area_Acres": 17.150921626199999 }, "geometry": { "type": "Point", "coordinates": [ -76.96315381672585, 38.859284268208192 ] } },
{ "type": "Feature", "properties": { "NAME": "Barry Farm", "ADDRESS": "Martin Luther King Jr. Blvd., between Howard and Sumner Rds.,", "Area_Acres": 8.3378099827799996 }, "geometry": { "type": "Point", "coordinates": [ -76.995947281769574, 38.860798557223866 ] } },
{ "type": "Feature", "properties": { "NAME": "Alger Park", "ADDRESS": "31st and W Sts., to Park and Hillcrest Drs., SE", "Area_Acres": 7.2423219042999998 }, "geometry": { "type": "Point", "coordinates": [ -76.965166314926833, 38.864410382622538 ] } },
{ "type": "Feature", "properties": { "NAME": "Pope Branch Park", "ADDRESS": "M St. and Fairlawn Ave., to 39th and Nash Sts., SE", "Area_Acres": 41.687419321299998 }, "geometry": { "type": "Point", "coordinates": [ -76.956673445938875, 38.873995392151301 ] } },
{ "type": "Feature", "properties": { "NAME": "Canal Park", "ADDRESS": "2nd St., between L and M Sts., SE", "Area_Acres": 3.2040771318600001 }, "geometry": { "type": "Point", "coordinates": [ -77.003220683036602, 38.877967242515346 ] } },
{ "type": "Feature", "properties": { "NAME": "Lansburgh Park", "ADDRESS": "Delaware Ave., between I and M Sts., SW", "Area_Acres": 4.9616444908300004 }, "geometry": { "type": "Point", "coordinates": [ -77.012400185567046, 38.878176182511773 ] } },
{ "type": "Feature", "properties": { "NAME": "Jefferson Field", "ADDRESS": "7th and 9th Sts., to G and H Sts., SW", "Area_Acres": 4.0088565799399998 }, "geometry": { "type": "Point", "coordinates": [ -77.022920031448436, 38.880709020837521 ] } },
{ "type": "Feature", "properties": { "NAME": "Amidon Field", "ADDRESS": "4th and G Sts., SW", "Area_Acres": 2.8037598637599999 }, "geometry": { "type": "Point", "coordinates": [ -77.018180161448868, 38.880717564477813 ] } },
{ "type": "Feature", "properties": { "NAME": "Fort Davis", "ADDRESS": "41st St., between Ft. Davis St. and Ft. Davis Pl., SE", "Area_Acres": 4.7724031489199996 }, "geometry": { "type": "Point", "coordinates": [ -76.945155020783346, 38.869446070665234 ] } },
{ "type": "Feature", "properties": { "NAME": "King-Greenleaf", "ADDRESS": "Canal St., between M and N Sts., SW", "Area_Acres": 7.48572378255 }, "geometry": { "type": "Point", "coordinates": [ -77.013370011298335, 38.874804117621473 ] } },
{ "type": "Feature", "properties": { "NAME": "Joy Evans", "ADDRESS": "6th St., between L and M Sts., SE", "Area_Acres": 0.94846159688099996 }, "geometry": { "type": "Point", "coordinates": [ -76.998505400303458, 38.877033350734777 ] } },
{ "type": "Feature", "properties": { "NAME": "Virginia Avenue", "ADDRESS": "L St., between 9th and 11th Sts., SE", "Area_Acres": 2.6331147924399998 }, "geometry": { "type": "Point", "coordinates": [ -76.992934511947553, 38.877521270443566 ] } },
{ "type": "Feature", "properties": { "NAME": "Ridge", "ADDRESS": "Ridge Rd. and Burns St., SE", "Area_Acres": 11.010316213399999 }, "geometry": { "type": "Point", "coordinates": [ -76.940817447411646, 38.876801806820062 ] } },
{ "type": "Feature", "properties": { "NAME": null, "ADDRESS": "Texas Ave. and C St., SE", "Area_Acres": 2.5548523247500001 }, "geometry": { "type": "Point", "coordinates": [ -76.940955430509973, 38.887194486636112 ] } },
{ "type": "Feature", "properties": { "NAME": "Kingsman Field", "ADDRESS": "14th St. and Tennessee Ave., NE", "Area_Acres": 1.0860006772199999 }, "geometry": { "type": "Point", "coordinates": [ -76.987365979764419, 38.895253063418089 ] } },
{ "type": "Feature", "properties": { "NAME": "Lovejoy Park", "ADDRESS": "E St., between 11th and 12th Sts., NE", "Area_Acres": 1.0965508121400001 }, "geometry": { "type": "Point", "coordinates": [ -76.990744536361959, 38.895691207643559 ] } },
{ "type": "Feature", "properties": { "NAME": "Watts Branch Park", "ADDRESS": "42nd St. and Hunt Pl., to 63rd St. and Southern Ave., NE", "Area_Acres": 61.664542902100003 }, "geometry": { "type": "Point", "coordinates": [ -76.92494147702017, 38.895463531664788 ] } },
{ "type": "Feature", "properties": { "NAME": "Bundy Field", "ADDRESS": "New Jersey Ave., between O and P Sts., NW", "Area_Acres": 2.4340091457200002 }, "geometry": { "type": "Point", "coordinates": [ -77.017683029145175, 38.90916468675124 ] } },
{ "type": "Feature", "properties": { "NAME": "W Street Park", "ADDRESS": "48th St., between W and Ashby Sts., NW", "Area_Acres": 2.98742519846 }, "geometry": { "type": "Point", "coordinates": [ -77.093606743414512, 38.919725680562053 ] } },
{ "type": "Feature", "properties": { "NAME": "K C Lewis", "ADDRESS": "Bryant and W Sts., 4th St., NW", "Area_Acres": 2.1201703037800002 }, "geometry": { "type": "Point", "coordinates": [ -77.016037527876861, 38.91998738044704 ] } },
{ "type": "Feature", "properties": { "NAME": "Loomis Park", "ADDRESS": "Bryant and Adams Sts., to Lawrence and 19th Sts., NE", "Area_Acres": 2.47712407173 }, "geometry": { "type": "Point", "coordinates": [ -76.976585507423977, 38.920856075437449 ] } },
{ "type": "Feature", "properties": { "NAME": "Dakota Park", "ADDRESS": "South Dakota Ave., Adams and 33rd Sts., NE", "Area_Acres": 2.9729584445500001 }, "geometry": { "type": "Point", "coordinates": [ -76.961750015329073, 38.921780291549638 ] } },
{ "type": "Feature", "properties": { "NAME": "Watkins", "ADDRESS": "13th St., between D and E Sts., SE", "Area_Acres": 3.1722072253300002 }, "geometry": { "type": "Point", "coordinates": [ -76.988837702202943, 38.883471175492161 ] } },
{ "type": "Feature", "properties": { "NAME": "Benning Stoddert", "ADDRESS": "100 Stoddert Pl., SE", "Area_Acres": 13.5159018416 }, "geometry": { "type": "Point", "coordinates": [ -76.948157038774241, 38.888529346729889 ] } },
{ "type": "Feature", "properties": { "NAME": "Sherwood", "ADDRESS": "9th and 10th Sts., to F and G Sts., NE", "Area_Acres": 1.98624440601 }, "geometry": { "type": "Point", "coordinates": [ -76.993204895296657, 38.898319727435116 ] } },
{ "type": "Feature", "properties": { "NAME": "Joe Cole", "ADDRESS": "Montello Ave. and Morse St., NE", "Area_Acres": 1.74319499703 }, "geometry": { "type": "Point", "coordinates": [ -76.988498442355919, 38.903510005496557 ] } },
{ "type": "Feature", "properties": { "NAME": "Trinidad", "ADDRESS": "Trinidad Ave., at Childress St., NE", "Area_Acres": 5.3424897498600004 }, "geometry": { "type": "Point", "coordinates": [ -76.982240469814528, 38.906669574381027 ] } },
{ "type": "Feature", "properties": { "NAME": "Deanwood", "ADDRESS": "49th and Quarles Sts., NE", "Area_Acres": 5.4290658409999999 }, "geometry": { "type": "Point", "coordinates": [ -76.932646693949835, 38.907968628104875 ] } },
{ "type": "Feature", "properties": { "NAME": "Rose Park", "ADDRESS": "Along Rock Creek , between National Zoological Park and Theo Roosevelt Bridge.", "Area_Acres": 1.57616864699 }, "geometry": { "type": "Point", "coordinates": [ -77.055153023073487, 38.908125221668001 ] } },
{ "type": "Feature", "properties": { "NAME": null, "ADDRESS": "Massachusetts Ave., between Fulton and 35th Sts., NW", "Area_Acres": 0.59607371627500005 }, "geometry": { "type": "Point", "coordinates": [ -77.068997550862377, 38.925909735533921 ] } },
{ "type": "Feature", "properties": { "NAME": null, "ADDRESS": "Lincoln Rd., between 4th and Franklin Sts., NE", "Area_Acres": 1.6056835523799999 }, "geometry": { "type": "Point", "coordinates": [ -77.00117137091874, 38.925941476475053 ] } },
{ "type": "Feature", "properties": { "NAME": null, "ADDRESS": "Massachusetts Ave., between Fulton and 36th Sts., NW", "Area_Acres": 0.388018020618 }, "geometry": { "type": "Point", "coordinates": [ -77.070565640941254, 38.926411026463562 ] } },
{ "type": "Feature", "properties": { "NAME": null, "ADDRESS": "Park Rd. and 19th St., south of Monroe St., NW", "Area_Acres": 0.132071573916 }, "geometry": { "type": "Point", "coordinates": [ -77.043919973213534, 38.932795125967516 ] } },
{ "type": "Feature", "properties": { "NAME": "Newark Community Gardens", "ADDRESS": "east of 39th St. and south of Newark St., NW", "Area_Acres": 5.0596647849599998 }, "geometry": { "type": "Point", "coordinates": [ -77.076178782231793, 38.934935505357522 ] } },
{ "type": "Feature", "properties": { "NAME": "Spring Valley Park", "ADDRESS": "49th St. and Fordham Rd., south of Quebec St., NW", "Area_Acres": 3.6526602369100001 }, "geometry": { "type": "Point", "coordinates": [ -77.098169374568585, 38.937429082046606 ] } },
{ "type": "Feature", "properties": { "NAME": null, "ADDRESS": "Michigan Ave., between Bunker Hill Rd. and 18th St., NE", "Area_Acres": 1.39067279765 }, "geometry": { "type": "Point", "coordinates": [ -76.98086436899014, 38.942243730591358 ] } },
{ "type": "Feature", "properties": { "NAME": "Stead", "ADDRESS": "15th and 16th Sts., to P & Church Sts., NW", "Area_Acres": 1.6123375199700001 }, "geometry": { "type": "Point", "coordinates": [ -77.037581613921205, 38.910224351605464 ] } },
{ "type": "Feature", "properties": { "NAME": "Harrison", "ADDRESS": "U and V Sts., to 13th & 14th Sts., NW", "Area_Acres": 1.3748864627099999 }, "geometry": { "type": "Point", "coordinates": [ -77.030703157266146, 38.917828374312492 ] } },
{ "type": "Feature", "properties": { "NAME": "Kalorama", "ADDRESS": "Kalorama Rd., between Columbia Rd. and 19th St., NW", "Area_Acres": 3.14936115784 }, "geometry": { "type": "Point", "coordinates": [ -77.044789653222537, 38.920410607610307 ] } },
{ "type": "Feature", "properties": { "NAME": "Brentwood", "ADDRESS": "15th and Downing Sts., NE", "Area_Acres": 1.2931375914400001 }, "geometry": { "type": "Point", "coordinates": [ -76.982929813304509, 38.920802150278767 ] } },
{ "type": "Feature", "properties": { "NAME": "Palisades", "ADDRESS": "Potomac and Arizona Aves., NW", "Area_Acres": 13.794689547600001 }, "geometry": { "type": "Point", "coordinates": [ -77.104759898949013, 38.925010637899732 ] } },
{ "type": "Feature", "properties": { "NAME": null, "ADDRESS": "Massachusetts Ave., between Yuma and 50th Sts., NW", "Area_Acres": 0.68775389393700004 }, "geometry": { "type": "Point", "coordinates": [ -77.098168910535492, 38.946559288775845 ] } },
{ "type": "Feature", "properties": { "NAME": "Forest Hills", "ADDRESS": "32nd and Chesapeake Sts., NW", "Area_Acres": 3.1323802244599999 }, "geometry": { "type": "Point", "coordinates": [ -77.06503750899023, 38.950202402449555 ] } },
{ "type": "Feature", "properties": { "NAME": null, "ADDRESS": "Davenport and Reno Rd.", "Area_Acres": 0.43343830664100003 }, "geometry": { "type": "Point", "coordinates": [ -77.071265123865558, 38.952414349826242 ] } },
{ "type": "Feature", "properties": { "NAME": "Linnean Park", "ADDRESS": "Linnean Ave. and Broad Branch Rd., NW", "Area_Acres": 5.9617313211400003 }, "geometry": { "type": "Point", "coordinates": [ -77.064647497290849, 38.955589630789163 ] } },
{ "type": "Feature", "properties": { "NAME": "Shepherd Field", "ADDRESS": "Kalmia and Jonquil Sts., NW", "Area_Acres": 4.5093763710500001 }, "geometry": { "type": "Point", "coordinates": [ -77.034567192381388, 38.984739535328586 ] } },
{ "type": "Feature", "properties": { "NAME": "Carolina Park", "ADDRESS": "Manning Place and Macomb Streets, south of Sherier", "Area_Acres": 1.4857325271099999 }, "geometry": { "type": "Point", "coordinates": [ -77.110404370624039, 38.931116298778903 ] } },
{ "type": "Feature", "properties": { "NAME": "NJ and O Sts Park", "ADDRESS": "1301 New Jersey Avenue, NW", "Area_Acres": 0.73381336354299997 }, "geometry": { "type": "Point", "coordinates": [ -77.016483170220567, 38.908206735251078 ] } },
{ "type": "Feature", "properties": { "NAME": "Noyes Park", "ADDRESS": "1000 Franklin Street, NE", "Area_Acres": 1.1200582106100001 }, "geometry": { "type": "Point", "coordinates": [ -76.991679886626414, 38.925826158168832 ] } },
{ "type": "Feature", "properties": { "NAME": "Unity Park", "ADDRESS": "Columbia Road, Euclid Street and Champlain Street,", "Area_Acres": 0.112977124308 }, "geometry": { "type": "Point", "coordinates": [ -77.041587489640875, 38.923204007947881 ] } },
{ "type": "Feature", "properties": { "NAME": "Dwight A. Moseley", "ADDRESS": "18th and Perry Sts., NE", "Area_Acres": 8.8085242357400002 }, "geometry": { "type": "Point", "coordinates": [ -76.977844935296048, 38.935852509190909 ] } },
{ "type": "Feature", "properties": { "NAME": "Raymond", "ADDRESS": "Spring Rd., between Quincy and 9th Sts., NW", "Area_Acres": 2.55115376955 }, "geometry": { "type": "Point", "coordinates": [ -77.026442067436705, 38.936807973706763 ] } },
{ "type": "Feature", "properties": { "NAME": "Turkey Thicket", "ADDRESS": "Shepherd St. and Michigan Ave., NE", "Area_Acres": 10.7761128486 }, "geometry": { "type": "Point", "coordinates": [ -76.992480628983571, 38.937899487629984 ] } },
{ "type": "Feature", "properties": { "NAME": "Hearst", "ADDRESS": "37th St. and Idaho Ave., NW", "Area_Acres": 6.4938400810400001 }, "geometry": { "type": "Point", "coordinates": [ -77.07171447388167, 38.939444910793512 ] } },
{ "type": "Feature", "properties": { "NAME": "Petworth", "ADDRESS": "Taylor St., between 8th and 9th Sts., NW", "Area_Acres": 1.13104091241 }, "geometry": { "type": "Point", "coordinates": [ -77.024003080545086, 38.941125006635957 ] } },
{ "type": "Feature", "properties": { "NAME": "Friendship", "ADDRESS": "45th St., Van Ness and Massachusetts Ave., NW", "Area_Acres": 11.1067595087 }, "geometry": { "type": "Point", "coordinates": [ -77.088998946814669, 38.94249172241647 ] } },
{ "type": "Feature", "properties": { "NAME": "Walter Pierce Park", "ADDRESS": "Adams Mill and Ontario Rds., NW", "Area_Acres": 4.1126867323100003 }, "geometry": { "type": "Point", "coordinates": [ -77.0460261209967, 38.924105148643108 ] } },
{ "type": "Feature", "properties": { "NAME": null, "ADDRESS": "13th Street and Tennessee Ave., NE", "Area_Acres": 0.26405735816100001 }, "geometry": { "type": "Point", "coordinates": [ -76.988303104071619, 38.892100068719863 ] } },
{ "type": "Feature", "properties": { "NAME": null, "ADDRESS": "14th Street and Luzon Ave., NW", "Area_Acres": 0.39573912143599999 }, "geometry": { "type": "Point", "coordinates": [ -77.03369297958605, 38.969242640127696 ] } },
{ "type": "Feature", "properties": { "NAME": null, "ADDRESS": "14th Street, Oak and Ogden Streets, NW", "Area_Acres": 0.13182579954400001 }, "geometry": { "type": "Point", "coordinates": [ -77.032934877335251, 38.933979415800508 ] } },
{ "type": "Feature", "properties": { "NAME": "Rudolph", "ADDRESS": "Ingraham and Hamilton Sts., to 2nd & 3rd Sts., NW", "Area_Acres": 5.3818672840500001 }, "geometry": { "type": "Point", "coordinates": [ -77.014754326482546, 38.953879151614771 ] } },
{ "type": "Feature", "properties": { "NAME": "Hamilton", "ADDRESS": "13th and 14th Sts., to Hamilton & Gallatin Sts., NW", "Area_Acres": 1.75752891018 }, "geometry": { "type": "Point", "coordinates": [ -77.031137947682879, 38.952619704398991 ] } },
{ "type": "Feature", "properties": { "NAME": "Riggs LaSalle", "ADDRESS": "Riggs Rd. and Nicholson St., NE", "Area_Acres": 4.8041870211499997 }, "geometry": { "type": "Point", "coordinates": [ -76.998917050696377, 38.959614466875365 ] } },
{ "type": "Feature", "properties": { "NAME": "Chevy Chase Rec Center", "ADDRESS": "Livingston St., between 41st St. and Western Ave., NW", "Area_Acres": 3.6188607161899999 }, "geometry": { "type": "Point", "coordinates": [ -77.081049259959883, 38.96371762026574 ] } },
{ "type": "Feature", "properties": { "NAME": "Lamond", "ADDRESS": "Kansas Ave., between Underwood and Tuckerman Sts., NW", "Area_Acres": 2.6014019996700002 }, "geometry": { "type": "Point", "coordinates": [ -77.007745207856459, 38.967781582309797 ] } },
{ "type": "Feature", "properties": { "NAME": "Takoma Community Center", "ADDRESS": "Van Buren and Sheridan Sts., to 3rd & 5th Sts., NW", "Area_Acres": 16.7368452029 }, "geometry": { "type": "Point", "coordinates": [ -77.017618377244858, 38.968579144782566 ] } },
{ "type": "Feature", "properties": { "NAME": "Takoma Rec", "ADDRESS": "Van Buren St., between 3rd and 4th Sts., NW", "Area_Acres": 4.5471123149499997 }, "geometry": { "type": "Point", "coordinates": [ -77.017086151929774, 38.970580058137266 ] } },
{ "type": "Feature", "properties": { "NAME": "Fort Stevens", "ADDRESS": "Luzon Ave., between Van Buren and 13th Sts., NW", "Area_Acres": 8.9563510611799995 }, "geometry": { "type": "Point", "coordinates": [ -77.031160740123212, 38.970651323995575 ] } },
{ "type": "Feature", "properties": { "NAME": null, "ADDRESS": "15th Street and North Carolina Avenue, NE", "Area_Acres": 0.254262335836 }, "geometry": { "type": "Point", "coordinates": [ -76.983950266725188, 38.892148439947739 ] } },
{ "type": "Feature", "properties": { "NAME": "Fort Lincoln", "ADDRESS": "Ft. Lincoln Dr. and 31st Pl., NE", "Area_Acres": 17.2021246061 }, "geometry": { "type": "Point", "coordinates": [ -76.958226745914601, 38.925459240345077 ] } },
{ "type": "Feature", "properties": { "NAME": null, "ADDRESS": "49th and East Capitol Streets", "Area_Acres": 0.50684758908600003 }, "geometry": { "type": "Point", "coordinates": [ -76.931582588234278, 38.890018823874087 ] } },
{ "type": "Feature", "properties": { "NAME": null, "ADDRESS": "4th Street and Livingston Terrace, SE", "Area_Acres": 0.13467741621500001 }, "geometry": { "type": "Point", "coordinates": [ -77.00071200636755, 38.827007308984413 ] } },
{ "type": "Feature", "properties": { "NAME": null, "ADDRESS": "5th Street and Hobart Place, NW", "Area_Acres": 0.104718020897 }, "geometry": { "type": "Point", "coordinates": [ -77.020419494506001, 38.927870456927664 ] } },
{ "type": "Feature", "properties": { "NAME": null, "ADDRESS": "Arkansas Ave, Farragut Street and Georgia Avenue, NW", "Area_Acres": 0.33079475739699998 }, "geometry": { "type": "Point", "coordinates": [ -77.027594743072655, 38.951022055228066 ] } },
{ "type": "Feature", "properties": { "NAME": null, "ADDRESS": "Arkansas Avenue and Emerson Street, NW", "Area_Acres": 0.57601658897200003 }, "geometry": { "type": "Point", "coordinates": [ -77.029417307692839, 38.949435056651069 ] } },
{ "type": "Feature", "properties": { "NAME": null, "ADDRESS": "Bladensburg Road, 28th and Douglas Streets, NE", "Area_Acres": 0.29631969491299998 }, "geometry": { "type": "Point", "coordinates": [ -76.9678372768022, 38.923232781465003 ] } },
{ "type": "Feature", "properties": { "NAME": null, "ADDRESS": "Bladensburg Road, 30th and Douglas Streets, NE", "Area_Acres": 0.20891439924499999 }, "geometry": { "type": "Point", "coordinates": [ -76.966746058921174, 38.923608223186882 ] } },
{ "type": "Feature", "properties": { "NAME": "Parkview", "ADDRESS": "17th St., between Otis and Princeton Pls., NW", "Area_Acres": 1.5782388036799999 }, "geometry": { "type": "Point", "coordinates": [ -77.021750223973186, 38.935164140916797 ] } },
{ "type": "Feature", "properties": { "NAME": null, "ADDRESS": "Blair Road, 3rd and Whittier Streets, NW", "Area_Acres": 0.12614141052399999 }, "geometry": { "type": "Point", "coordinates": [ -77.015999028635065, 38.971465471303354 ] } },
{ "type": "Feature", "properties": { "NAME": null, "ADDRESS": "Brooks Street, Blaine Street and Division Avenue, SE", "Area_Acres": 0.246963079866 }, "geometry": { "type": "Point", "coordinates": [ -76.928854162628625, 38.891983684722838 ] } },
{ "type": "Feature", "properties": { "NAME": null, "ADDRESS": "Central Ave, 51st Street and Ayers Place, SE", "Area_Acres": 0.118572140221 }, "geometry": { "type": "Point", "coordinates": [ -76.927385057787902, 38.888450905416946 ] } },
{ "type": "Feature", "properties": { "NAME": null, "ADDRESS": "Chevy Chase Parkway and Patterson Street, NW", "Area_Acres": 0.13192672189999999 }, "geometry": { "type": "Point", "coordinates": [ -77.072725777711781, 38.966924343943624 ] } },
{ "type": "Feature", "properties": { "NAME": null, "ADDRESS": "Columbia Road, 19th Street and Kalorama Road, NW", "Area_Acres": 0.15373861127499999 }, "geometry": { "type": "Point", "coordinates": [ -77.044751469271873, 38.919444019876551 ] } },
{ "type": "Feature", "properties": { "NAME": "Marie Reed", "ADDRESS": "18th St. and Kalorama Rd., NW", "Area_Acres": 1.5411027053599999 }, "geometry": { "type": "Point", "coordinates": [ -77.041240855994303, 38.918931711058214 ] } },
{ "type": "Feature", "properties": { "NAME": "Columbia Heights", "ADDRESS": "15th and Girard Sts., NW", "Area_Acres": 1.5269921609199999 }, "geometry": { "type": "Point", "coordinates": [ -77.034625257616042, 38.924874939417258 ] } },
{ "type": "Feature", "properties": { "NAME": "Kennedy", "ADDRESS": "P St., between 6th and 7th Sts., NW", "Area_Acres": 3.7896623804499998 }, "geometry": { "type": "Point", "coordinates": [ -77.020903214812222, 38.909135335879142 ] } },
{ "type": "Feature", "properties": { "NAME": "Chevy Chase Community Center", "ADDRESS": "Connecticut Ave. and McKinley St., NW", "Area_Acres": 1.17732801656 }, "geometry": { "type": "Point", "coordinates": [ -77.075079926854272, 38.965291462427835 ] } },
{ "type": "Feature", "properties": { "NAME": "Macomb", "ADDRESS": "Macomb St., between 34th and 35th Sts., NW", "Area_Acres": 1.3188124030499999 }, "geometry": { "type": "Point", "coordinates": [ -77.067359328547752, 38.933891078363715 ] } },
{ "type": "Feature", "properties": { "NAME": "Stoddert", "ADDRESS": "Calvert St., between 39th and 41st Sts., NW", "Area_Acres": 4.0491740601800004 }, "geometry": { "type": "Point", "coordinates": [ -77.078008171278043, 38.923103117386596 ] } },
{ "type": "Feature", "properties": { "NAME": "Upshur", "ADDRESS": "14th St. and Arkansas Ave., NW", "Area_Acres": 7.5141074534300003 }, "geometry": { "type": "Point", "coordinates": [ -77.031791482350727, 38.943198789888491 ] } },
{ "type": "Feature", "properties": { "NAME": "Emery", "ADDRESS": "Georgia Ave. and Madison St., NW", "Area_Acres": 9.5427947222 }, "geometry": { "type": "Point", "coordinates": [ -77.027034822829222, 38.95946230343133 ] } },
{ "type": "Feature", "properties": { "NAME": "New York Ave Daycare", "ADDRESS": "New York Ave. and 1st St., NW", "Area_Acres": 2.4230814409899999 }, "geometry": { "type": "Point", "coordinates": [ -77.012901907715829, 38.906770153838664 ] } },
{ "type": "Feature", "properties": { "NAME": "Arboretum", "ADDRESS": "24th St. and Rand Pl., NE", "Area_Acres": 2.4519775935200001 }, "geometry": { "type": "Point", "coordinates": [ -76.971124624111013, 38.913994864035374 ] } },
{ "type": "Feature", "properties": { "NAME": "Guy Mason", "ADDRESS": "Calvert and 36th Sts., NW", "Area_Acres": 4.5706883067900002 }, "geometry": { "type": "Point", "coordinates": [ -77.071544985437782, 38.921856536866407 ] } },
{ "type": "Feature", "properties": { "NAME": "Rosedale", "ADDRESS": "17th and Gales Sts., NE", "Area_Acres": 5.0191710470200004 }, "geometry": { "type": "Point", "coordinates": [ -76.978992158829641, 38.89727296415159 ] } },
{ "type": "Feature", "properties": { "NAME": null, "ADDRESS": "New Hampshire, Sherman Ave and Park Place, NW", "Area_Acres": 0.25628517648299998 }, "geometry": { "type": "Point", "coordinates": [ -77.027075975488629, 38.932403821448005 ] } },
{ "type": "Feature", "properties": { "NAME": null, "ADDRESS": "North Carolina Avenue and A Street, NE", "Area_Acres": 0.38405610467899998 }, "geometry": { "type": "Point", "coordinates": [ -76.98661020346502, 38.891088470604871 ] } },
{ "type": "Feature", "properties": { "NAME": null, "ADDRESS": "Oklahoma Ave, 21st and D Streets, NE", "Area_Acres": 0.227974026425 }, "geometry": { "type": "Point", "coordinates": [ -76.974823683185946, 38.894565116594109 ] } },
{ "type": "Feature", "properties": { "NAME": "Rumsey Aquatic Center", "ADDRESS": "7th St. and N. Carolina Ave., NE", "Area_Acres": 1.15411131279 }, "geometry": { "type": "Point", "coordinates": [ -76.996976082000728, 38.886534701881004 ] } },
{ "type": "Feature", "properties": { "NAME": "Francis", "ADDRESS": "25th and N Sts., NW", "Area_Acres": 6.7391754284600003 }, "geometry": { "type": "Point", "coordinates": [ -77.052092689910495, 38.907562592002073 ] } },
{ "type": "Feature", "properties": { "NAME": "Hardy", "ADDRESS": "Foxhall Rd. and Q St., NW", "Area_Acres": 4.8287037480199997 }, "geometry": { "type": "Point", "coordinates": [ -77.084480407560775, 38.909394243659648 ] } },
{ "type": "Feature", "properties": { "NAME": "Lafayette", "ADDRESS": "Broad Branch Rd., between Quesada and 33rd Sts., NW", "Area_Acres": 9.3040435563100008 }, "geometry": { "type": "Point", "coordinates": [ -77.067650379611933, 38.967603385674039 ] } },
{ "type": "Feature", "properties": { "NAME": "Shaw", "ADDRESS": "Rhode Island Ave. and 11th St., NW", "Area_Acres": 2.9810671597699998 }, "geometry": { "type": "Point", "coordinates": [ -77.026387028754186, 38.911586885640169 ] } },
{ "type": "Feature", "properties": { "NAME": "North Michigan Park", "ADDRESS": "13th and Emerson Sts., NE", "Area_Acres": 4.1346516340799999 }, "geometry": { "type": "Point", "coordinates": [ -76.985958664079376, 38.949597595311928 ] } },
{ "type": "Feature", "properties": { "NAME": "Evans Park", "ADDRESS": "East Capitol and Blaine Sts., to 55th St. & 57th Pl., SE", "Area_Acres": 4.9958255863299996 }, "geometry": { "type": "Point", "coordinates": [ -76.921995104258954, 38.890527124174859 ] } },
{ "type": "Feature", "properties": { "NAME": null, "ADDRESS": "Edgewood Street, 6th and Evart Streets, NE", "Area_Acres": 0.39401268683700003 }, "geometry": { "type": "Point", "coordinates": [ -76.998112546654482, 38.9243347682918 ] } },
{ "type": "Feature", "properties": { "NAME": null, "ADDRESS": "First Street and Florida Avenue, NW", "Area_Acres": 0.80993702154199998 }, "geometry": { "type": "Point", "coordinates": [ -77.013024423142568, 38.912161705467518 ] } },
{ "type": "Feature", "properties": { "NAME": "Galen Tait Memorial Park", "ADDRESS": "Western Avenue and Ellicott Street, NW", "Area_Acres": 0.49437641192800003 }, "geometry": { "type": "Point", "coordinates": [ -77.094638821049543, 38.953549771211677 ] } },
{ "type": "Feature", "properties": { "NAME": null, "ADDRESS": "Georgia Ave, 9th and Upshur Streets, NW", "Area_Acres": 0.38014800951400002 }, "geometry": { "type": "Point", "coordinates": [ -77.025192553236238, 38.941422146824678 ] } },
{ "type": "Feature", "properties": { "NAME": null, "ADDRESS": "Georgia Ave, Kansas Avenue and Varnum Street, NW", "Area_Acres": 0.18292654620900001 }, "geometry": { "type": "Point", "coordinates": [ -77.025502117126607, 38.94276038744372 ] } },
{ "type": "Feature", "properties": { "NAME": null, "ADDRESS": "Girard Street, 16th Street and Brentwood Road, NE", "Area_Acres": 0.13491679030100001 }, "geometry": { "type": "Point", "coordinates": [ -76.982432234140575, 38.927080698315059 ] } },
{ "type": "Feature", "properties": { "NAME": null, "ADDRESS": "Harewood Road and Taylor St.NE", "Area_Acres": 0.145718413484 }, "geometry": { "type": "Point", "coordinates": [ -77.003122304323981, 38.94053456244243 ] } },
{ "type": "Feature", "properties": { "NAME": null, "ADDRESS": "Illinois Ave and Shepherd Street, NW", "Area_Acres": 0.173084735775 }, "geometry": { "type": "Point", "coordinates": [ -77.017180771831377, 38.940120801671888 ] } },
{ "type": "Feature", "properties": { "NAME": null, "ADDRESS": "Illinois Ave, 9th and Gallatin Streets, NW", "Area_Acres": 0.81981717951900002 }, "geometry": { "type": "Point", "coordinates": [ -77.025301696612573, 38.952324244633893 ] } },
{ "type": "Feature", "properties": { "NAME": null, "ADDRESS": "Illinois Ave, 9th and Ingraham Streets, NW", "Area_Acres": 0.219558891901 }, "geometry": { "type": "Point", "coordinates": [ -77.025795114232565, 38.953887462618944 ] } },
{ "type": "Feature", "properties": { "NAME": null, "ADDRESS": "Kansas Ave, 13th and Quincy Streets, NW", "Area_Acres": 0.285802134534 }, "geometry": { "type": "Point", "coordinates": [ -77.029492814753056, 38.937374871507274 ] } },
{ "type": "Feature", "properties": { "NAME": null, "ADDRESS": "Kansas Ave, 2nd and Longfellow Streets, NW", "Area_Acres": 0.23082671778800001 }, "geometry": { "type": "Point", "coordinates": [ -77.013831671193643, 38.957871537583749 ] } },
{ "type": "Feature", "properties": { "NAME": null, "ADDRESS": "Kansas Ave, 3rd and Ingraham Streets, NW", "Area_Acres": 0.292063602443 }, "geometry": { "type": "Point", "coordinates": [ -77.016211223539372, 38.954637198068163 ] } },
{ "type": "Feature", "properties": { "NAME": null, "ADDRESS": "Kansas Ave, 4th and Gallatin Streets, NW", "Area_Acres": 0.401528787813 }, "geometry": { "type": "Point", "coordinates": [ -77.017849475726479, 38.952392170347046 ] } },
{ "type": "Feature", "properties": { "NAME": null, "ADDRESS": "Kansas Ave, 5th and Farragut Streets, NW", "Area_Acres": 0.13268503964 }, "geometry": { "type": "Point", "coordinates": [ -77.019467958276067, 38.950859621960618 ] } },
{ "type": "Feature", "properties": { "NAME": null, "ADDRESS": "Kentucky and Independence Avenues, SE", "Area_Acres": 0.11554424376899999 }, "geometry": { "type": "Point", "coordinates": [ -76.988559572584137, 38.887831352479154 ] } },
{ "type": "Feature", "properties": { "NAME": null, "ADDRESS": "Kentucky Ave, 15th and G Streets", "Area_Acres": 0.14193611675500001 }, "geometry": { "type": "Point", "coordinates": [ -76.983488886280753, 38.881438960190991 ] } },
{ "type": "Feature", "properties": { "NAME": null, "ADDRESS": "Lincoln Road, 2nd and Channing Streets, NE", "Area_Acres": 0.23948925161699999 }, "geometry": { "type": "Point", "coordinates": [ -77.003643486814781, 38.922675060365137 ] } },
{ "type": "Feature", "properties": { "NAME": null, "ADDRESS": "Michigan Ave, 12th and Shepherd Streets, NE", "Area_Acres": 0.65396604325600005 }, "geometry": { "type": "Point", "coordinates": [ -76.989904899486831, 38.939376037325523 ] } },
{ "type": "Feature", "properties": { "NAME": null, "ADDRESS": "Minnesota Avenue between 16th and T Streets, SE", "Area_Acres": 0.26767141055600002 }, "geometry": { "type": "Point", "coordinates": [ -76.982501317593631, 38.867420135288114 ] } },
{ "type": "Feature", "properties": { "NAME": null, "ADDRESS": "Minnesota Ave, 22nd and O Street", "Area_Acres": 0.54622622104600005 }, "geometry": { "type": "Point", "coordinates": [ -76.975333844266785, 38.870944508736805 ] } },
{ "type": "Feature", "properties": { "NAME": null, "ADDRESS": "Minnesota Ave, 22nd Street and Naylor Road, SE", "Area_Acres": 0.41693437461400001 }, "geometry": { "type": "Point", "coordinates": [ -76.974685527475415, 38.870959421727285 ] } },
{ "type": "Feature", "properties": { "NAME": null, "ADDRESS": "Minnesota Ave, 34th and D Streets, SE", "Area_Acres": 0.29107360924199999 }, "geometry": { "type": "Point", "coordinates": [ -76.957324651401933, 38.884172651565393 ] } },
{ "type": "Feature", "properties": { "NAME": null, "ADDRESS": "Minnesota Ave, 36th Street and Croffut Place, SE", "Area_Acres": 0.30921312557500003 }, "geometry": { "type": "Point", "coordinates": [ -76.954829270778561, 38.887036628716281 ] } },
{ "type": "Feature", "properties": { "NAME": null, "ADDRESS": "Minnesota Avenue and Good Hope Road, SE", "Area_Acres": 0.235151064514 }, "geometry": { "type": "Point", "coordinates": [ -76.983884952024852, 38.866710508499281 ] } },
{ "type": "Feature", "properties": { "NAME": null, "ADDRESS": "Missouri Ave, 200 blk 2nd,  and 5300 blk Kennedy Streets, NW", "Area_Acres": 0.13312217233599999 }, "geometry": { "type": "Point", "coordinates": [ -77.013938135482434, 38.956496725920125 ] } },
{ "type": "Feature", "properties": { "NAME": null, "ADDRESS": "Missouri Ave, 3rd and Longfellow Streets, NW", "Area_Acres": 0.16839674097099999 }, "geometry": { "type": "Point", "coordinates": [ -77.017112416342087, 38.957547967406917 ] } },
{ "type": "Feature", "properties": { "NAME": null, "ADDRESS": "Mt. Pleasant, Lamont and 17th Streets, NW", "Area_Acres": 0.33179235984099997 }, "geometry": { "type": "Point", "coordinates": [ -77.038678598585463, 38.931616196406885 ] } },
{ "type": "Feature", "properties": { "NAME": null, "ADDRESS": "Naylor Road, 25th Street and Good Hope Road, SE", "Area_Acres": 0.17918715170899999 }, "geometry": { "type": "Point", "coordinates": [ -76.969155649466302, 38.86126682692344 ] } },
{ "type": "Feature", "properties": { "NAME": null, "ADDRESS": "Nebraska and Oregon Avenues, NW", "Area_Acres": 0.119918877163 }, "geometry": { "type": "Point", "coordinates": [ -77.053722591957765, 38.970752721798071 ] } },
{ "type": "Feature", "properties": { "NAME": null, "ADDRESS": "New Hampshire Ave, 17th and S Streets, NW", "Area_Acres": 0.400244952559 }, "geometry": { "type": "Point", "coordinates": [ -77.038746783542976, 38.914334400285647 ] } },
{ "type": "Feature", "properties": { "NAME": null, "ADDRESS": "New Hampshire Ave, 17th and T Streets, NW", "Area_Acres": 0.190588801281 }, "geometry": { "type": "Point", "coordinates": [ -77.038289411247405, 38.915391199963558 ] } },
{ "type": "Feature", "properties": { "NAME": null, "ADDRESS": "New Hampshire Ave, 1st and Ingraham Streets, NW", "Area_Acres": 0.61435103946199998 }, "geometry": { "type": "Point", "coordinates": [ -77.011286046147745, 38.95424685417791 ] } },
{ "type": "Feature", "properties": { "NAME": null, "ADDRESS": "New Hampshire Ave, 21st and M Streets, NW", "Area_Acres": 0.22686478185799999 }, "geometry": { "type": "Point", "coordinates": [ -77.04687500773187, 38.905745210127847 ] } },
{ "type": "Feature", "properties": { "NAME": null, "ADDRESS": "New Hampshire Ave, 4th and Buchanan Streets, NW", "Area_Acres": 0.13327508535099999 }, "geometry": { "type": "Point", "coordinates": [ -77.017169237346636, 38.946234670678116 ] } },
{ "type": "Feature", "properties": { "NAME": null, "ADDRESS": "New Hampshire Ave, 7th and Taylor Streets, NW", "Area_Acres": 0.31437788508600001 }, "geometry": { "type": "Point", "coordinates": [ -77.021351447543836, 38.940682753578081 ] } },
{ "type": "Feature", "properties": { "NAME": null, "ADDRESS": "New Hampshire Ave, 8th and Randolph Streets, NW", "Area_Acres": 0.28499188090900002 }, "geometry": { "type": "Point", "coordinates": [ -77.022969284790292, 38.938493357132046 ] } },
{ "type": "Feature", "properties": { "NAME": null, "ADDRESS": "New Hampshire Ave, Longfellow and North Capitol Streets, NW", "Area_Acres": 0.242805585293 }, "geometry": { "type": "Point", "coordinates": [ -77.008830260078852, 38.957402224970011 ] } },
{ "type": "Feature", "properties": { "NAME": null, "ADDRESS": "New Hampshire Avenue and Decatur Street, NW", "Area_Acres": 0.18716125574199999 }, "geometry": { "type": "Point", "coordinates": [ -77.015534836922384, 38.94839857437595 ] } },
{ "type": "Feature", "properties": { "NAME": null, "ADDRESS": "Plymouth Street and Sudbury Lane, NW", "Area_Acres": 0.29913717649100002 }, "geometry": { "type": "Point", "coordinates": [ -77.044893330907755, 38.986634120532408 ] } },
{ "type": "Feature", "properties": { "NAME": null, "ADDRESS": "Potomac Ave, 16th and G Streets, SE", "Area_Acres": 0.210752529198 }, "geometry": { "type": "Point", "coordinates": [ -76.982488218613142, 38.881402485757405 ] } },
{ "type": "Feature", "properties": { "NAME": null, "ADDRESS": "Potomac Ave, 17th and E Streets, SE", "Area_Acres": 0.56894984821600003 }, "geometry": { "type": "Point", "coordinates": [ -76.980341480476497, 38.882639666024097 ] } },
{ "type": "Feature", "properties": { "NAME": null, "ADDRESS": "Potomac Ave. and E Street, SE", "Area_Acres": 0.35446690347900001 }, "geometry": { "type": "Point", "coordinates": [ -76.978478636655524, 38.882991409168163 ] } },
{ "type": "Feature", "properties": { "NAME": null, "ADDRESS": "Potomac Ave. and K Street, SE", "Area_Acres": 0.35617327312199998 }, "geometry": { "type": "Point", "coordinates": [ -76.989412914544985, 38.878552260364053 ] } },
{ "type": "Feature", "properties": { "NAME": null, "ADDRESS": "Reno Road, 34th and Ordway Streets, NW", "Area_Acres": 0.18160997489899999 }, "geometry": { "type": "Point", "coordinates": [ -77.066227767406062, 38.936489614675345 ] } },
{ "type": "Feature", "properties": { "NAME": null, "ADDRESS": "Reno, 38th and Huntington, NW", "Area_Acres": 0.45368551993 }, "geometry": { "type": "Point", "coordinates": [ -77.074886955615739, 38.957483502414469 ] } },
{ "type": "Feature", "properties": { "NAME": null, "ADDRESS": "Reno Road, 39th and Jenifer Streets, NW", "Area_Acres": 0.39322614038499998 }, "geometry": { "type": "Point", "coordinates": [ -77.077457469852916, 38.958853668255188 ] } },
{ "type": "Feature", "properties": { "NAME": null, "ADDRESS": "Reno Road, Fessenden Street and Chevy Chase Parkway", "Area_Acres": 0.10078153925699999 }, "geometry": { "type": "Point", "coordinates": [ -77.07297597599262, 38.954817277668283 ] } },
{ "type": "Feature", "properties": { "NAME": null, "ADDRESS": "Rhode Island Ave and U Street, NE", "Area_Acres": 0.102457122993 }, "geometry": { "type": "Point", "coordinates": [ -77.007802729990445, 38.917068848046959 ] } },
{ "type": "Feature", "properties": { "NAME": null, "ADDRESS": "Rhode Island Ave, 14th Street and Brentwood Road, NE", "Area_Acres": 0.409815338137 }, "geometry": { "type": "Point", "coordinates": [ -76.986048548442042, 38.924651676015891 ] } },
{ "type": "Feature", "properties": { "NAME": null, "ADDRESS": "Rhode Island Ave, 17th and Girard Streets, NE", "Area_Acres": 0.160566318185 }, "geometry": { "type": "Point", "coordinates": [ -76.980996616529737, 38.926791677838949 ] } },
{ "type": "Feature", "properties": { "NAME": "Carter G. Woodson Memorial Park", "ADDRESS": "Rhode Island Ave at 900 blk of Q, 900 blk of R.I., and 1600 blk of 9th", "Area_Acres": 0.27902985338000003 }, "geometry": { "type": "Point", "coordinates": [ -77.024343305932632, 38.911264599670915 ] } },
{ "type": "Feature", "properties": { "NAME": null, "ADDRESS": "Rhode Island Ave, Douglas and Brentwood Roads, NE", "Area_Acres": 0.62965911735699998 }, "geometry": { "type": "Point", "coordinates": [ -76.988840939972249, 38.923316775953452 ] } },
{ "type": "Feature", "properties": { "NAME": null, "ADDRESS": "Rhode Island Avenue and W Street, NE", "Area_Acres": 0.493620594445 }, "geometry": { "type": "Point", "coordinates": [ -77.001018631716491, 38.919346589565677 ] } },
{ "type": "Feature", "properties": { "NAME": null, "ADDRESS": "Massachusetts Ave, 17th and C Streets, SE", "Area_Acres": 0.62837107430000005 }, "geometry": { "type": "Point", "coordinates": [ -76.980320877506614, 38.88554995537865 ] } },
{ "type": "Feature", "properties": { "NAME": null, "ADDRESS": "Massachusetts Ave, 31st and K Streets, SE", "Area_Acres": 0.18099250630899999 }, "geometry": { "type": "Point", "coordinates": [ -76.962877165614913, 38.878512712832823 ] } },
{ "type": "Feature", "properties": { "NAME": "Bishop Lalossu Memorial Park", "ADDRESS": "Massachusetts Ave, 36th and Garfield Streets, NW", "Area_Acres": 0.26134035557700003 }, "geometry": { "type": "Point", "coordinates": [ -77.071111398968227, 38.927324132729431 ] } },
{ "type": "Feature", "properties": { "NAME": null, "ADDRESS": "Massachusetts Ave, 47th and Upton Streets, NW", "Area_Acres": 0.28883699859599998 }, "geometry": { "type": "Point", "coordinates": [ -77.092364889004457, 38.942405016556172 ] } },
{ "type": "Feature", "properties": { "NAME": null, "ADDRESS": "Massachusetts Ave, 49th and Yuma Streets, NW", "Area_Acres": 0.11580063119300001 }, "geometry": { "type": "Point", "coordinates": [ -77.096946733289158, 38.946158694944323 ] } },
{ "type": "Feature", "properties": { "NAME": null, "ADDRESS": "Massachusetts Ave, 8th Street and Constitution Avenue, NE", "Area_Acres": 0.33377775508000002 }, "geometry": { "type": "Point", "coordinates": [ -76.99472905691799, 38.891850006991248 ] } },
{ "type": "Feature", "properties": { "NAME": null, "ADDRESS": "Massachusetts Ave, 14th Street and Independence Avenue, SE", "Area_Acres": 0.208363588392 }, "geometry": { "type": "Point", "coordinates": [ -76.985643633604752, 38.887741783740701 ] } },
{ "type": "Feature", "properties": { "NAME": null, "ADDRESS": "Massachusetts Ave, 15th Street and South Carolina Avenue, SE", "Area_Acres": 0.46274733033499998 }, "geometry": { "type": "Point", "coordinates": [ -76.984074834065325, 38.887277292702542 ] } },
{ "type": "Feature", "properties": { "NAME": null, "ADDRESS": "Massachusetts Avenue and A Street, SE", "Area_Acres": 0.34768173564600002 }, "geometry": { "type": "Point", "coordinates": [ -76.986621498550107, 38.888513823729149 ] } },
{ "type": "Feature", "properties": { "NAME": null, "ADDRESS": "Riggs Road and Oglethorpe Streets at 6th Street, NE", "Area_Acres": 0.098509042541500003 }, "geometry": { "type": "Point", "coordinates": [ -76.998897242373218, 38.961150180516505 ] } },
{ "type": "Feature", "properties": { "NAME": null, "ADDRESS": "Rock Creek Church Road and Quincy Street, NW", "Area_Acres": 0.32719376844199999 }, "geometry": { "type": "Point", "coordinates": [ -77.018574460038209, 38.937647720899733 ] } },
{ "type": "Feature", "properties": { "NAME": null, "ADDRESS": "South of South Carolina Avenue and C Street, SE", "Area_Acres": 0.42866426818800002 }, "geometry": { "type": "Point", "coordinates": [ -76.989380320866573, 38.885503170156007 ] } },
{ "type": "Feature", "properties": { "NAME": null, "ADDRESS": "North South Carolina Avenue and C Street, SE", "Area_Acres": 0.125826183678 }, "geometry": { "type": "Point", "coordinates": [ -76.98875285981039, 38.885950999222729 ] } },
{ "type": "Feature", "properties": { "NAME": null, "ADDRESS": "South Dakota Ave, 19th and Randolph Streets, NE", "Area_Acres": 0.14916621548799999 }, "geometry": { "type": "Point", "coordinates": [ -76.978493468573745, 38.938149915309268 ] } },
{ "type": "Feature", "properties": { "NAME": null, "ADDRESS": "3700 Blk South Dakota Ave, 20th and 1900 Blk Otis Streets, NE", "Area_Acres": 0.28987921639699998 }, "geometry": { "type": "Point", "coordinates": [ -76.975996930768744, 38.935284063482698 ] } },
{ "type": "Feature", "properties": { "NAME": null, "ADDRESS": "South Dakota Ave, 26th and Irving Streets, NE", "Area_Acres": 0.41380616592199998 }, "geometry": { "type": "Point", "coordinates": [ -76.969887721232993, 38.929387193465821 ] } },
{ "type": "Feature", "properties": { "NAME": null, "ADDRESS": "South Dakota Ave, Bladensburg Road and Franklin Street, NE", "Area_Acres": 0.13572653623 }, "geometry": { "type": "Point", "coordinates": [ -76.965162353987324, 38.925461695561943 ] } },
{ "type": "Feature", "properties": { "NAME": null, "ADDRESS": "South Dakota Ave, Sargeant and Crittenden Streets, NE", "Area_Acres": 0.13296173734399999 }, "geometry": { "type": "Point", "coordinates": [ -76.989323857274897, 38.94714178681248 ] } },
{ "type": "Feature", "properties": { "NAME": null, "ADDRESS": "South Dakota Ave, Sargeant Road and Buchanan Street, NE", "Area_Acres": 0.112978585815 }, "geometry": { "type": "Point", "coordinates": [ -76.988761133778524, 38.946409386319168 ] } },
{ "type": "Feature", "properties": { "NAME": "Anna J. Cooper Circle", "ADDRESS": "T and 3rd Streets, NW", "Area_Acres": 0.17826814450699999 }, "geometry": { "type": "Point", "coordinates": [ -77.01573740249971, 38.91592329070528 ] } },
{ "type": "Feature", "properties": { "NAME": null, "ADDRESS": "Tennessee Ave, 14th and D Streets, NE", "Area_Acres": 0.234624869269 }, "geometry": { "type": "Point", "coordinates": [ -76.985693898836459, 38.894990386610779 ] } },
{ "type": "Feature", "properties": { "NAME": null, "ADDRESS": "Tennessee Ave, 14th and E Streets, NE", "Area_Acres": 0.172130130972 }, "geometry": { "type": "Point", "coordinates": [ -76.985333300838079, 38.895933108215146 ] } },
{ "type": "Feature", "properties": { "NAME": null, "ADDRESS": "Texas Avenue and Benning Road, SE", "Area_Acres": 0.110956913946 }, "geometry": { "type": "Point", "coordinates": [ -76.937912691892379, 38.889770777053791 ] } },
{ "type": "Feature", "properties": { "NAME": null, "ADDRESS": "Western Ave and Pinhurst Circle, NW", "Area_Acres": 0.56415429130200001 }, "geometry": { "type": "Point", "coordinates": [ -77.0661972814531, 38.975764439837185 ] } },
{ "type": "Feature", "properties": { "NAME": null, "ADDRESS": "Wisconsin Ave, 39th and Veazy Streets, NW", "Area_Acres": 0.13138484569200001 }, "geometry": { "type": "Point", "coordinates": [ -77.077170097425494, 38.943782191724161 ] } },
{ "type": "Feature", "properties": { "NAME": null, "ADDRESS": "Wisconsin Ave, Ellicot and 42nd Streets, NW", "Area_Acres": 0.113067185783 }, "geometry": { "type": "Point", "coordinates": [ -77.081966791325797, 38.953000438208761 ] } },
{ "type": "Feature", "properties": { "NAME": null, "ADDRESS": "Woodley Road and 29th Street, NW", "Area_Acres": 0.11311603196800001 }, "geometry": { "type": "Point", "coordinates": [ -77.057441165183121, 38.926271381503497 ] } },
{ "type": "Feature", "properties": { "NAME": null, "ADDRESS": "Mt. Pleasant Street and Park Road, NW", "Area_Acres": 0.17789283314900001 }, "geometry": { "type": "Point", "coordinates": [ -77.039659891010785, 38.932686743091352 ] } },
{ "type": "Feature", "properties": { "NAME": null, "ADDRESS": "Rhode Island Ave., 1st and U Sts., NW", "Area_Acres": 0.12866725211499999 }, "geometry": { "type": "Point", "coordinates": [ -77.011852847128978, 38.915638672186844 ] } },
{ "type": "Feature", "properties": { "NAME": "Twin Oaks Garden", "ADDRESS": "14th and Taylor Sts., NW", "Area_Acres": 0.560381586411 }, "geometry": { "type": "Point", "coordinates": [ -77.032392472138724, 38.940789571363069 ] } },
{ "type": "Feature", "properties": { "NAME": null, "ADDRESS": "14th and Girard Sts., NW", "Area_Acres": 0.27436150648199997 }, "geometry": { "type": "Point", "coordinates": [ -77.031979801025471, 38.925527974453743 ] } },
{ "type": "Feature", "properties": { "NAME": null, "ADDRESS": "11th and Monroe Sts., NW", "Area_Acres": 0.27563081753399998 }, "geometry": { "type": "Point", "coordinates": [ -77.028882631882908, 38.932859239103244 ] } },
{ "type": "Feature", "properties": { "NAME": "Justice Park", "ADDRESS": "14th and Euclid Sts., NW", "Area_Acres": 0.286399566991 }, "geometry": { "type": "Point", "coordinates": [ -77.032876140824214, 38.923833720786654 ] } },
{ "type": "Feature", "properties": { "NAME": null, "ADDRESS": "Rhode Island Ave., 6th and R Sts., NW", "Area_Acres": 0.111724876207 }, "geometry": { "type": "Point", "coordinates": [ -77.020205662166106, 38.912725807934962 ] } },
{ "type": "Feature", "properties": { "NAME": null, "ADDRESS": "7th and N Sts., NW", "Area_Acres": 0.88746804582100003 }, "geometry": { "type": "Point", "coordinates": [ -77.021268204089694, 38.906762359172241 ] } },
{ "type": "Feature", "properties": { "NAME": null, "ADDRESS": "7th St., North Carolina and Independence Aves., SE", "Area_Acres": 0.248482132237 }, "geometry": { "type": "Point", "coordinates": [ -76.996506693986888, 38.887444190758949 ] } },
{ "type": "Feature", "properties": { "NAME": "Randle Highlands", "ADDRESS": "3000 R St., SE", "Area_Acres": 2.4378385362700001 }, "geometry": { "type": "Point", "coordinates": [ -76.963677454246636, 38.870043451979669 ] } },
{ "type": "Feature", "properties": { "NAME": "Westminster Playground", "ADDRESS": "907 Westminster St., NW", "Area_Acres": 0.16638507577 }, "geometry": { "type": "Point", "coordinates": [ -77.024648171051496, 38.915028227120715 ] } },
{ "type": "Feature", "properties": { "NAME": null, "ADDRESS": "4th St. and Blair Rd., NW", "Area_Acres": 0.17097669774400001 }, "geometry": { "type": "Point", "coordinates": [ -77.017805249349038, 38.97414586470866 ] } },
{ "type": "Feature", "properties": { "NAME": "Oxon Run Park", "ADDRESS": "Mississippi Ave., between 1st St. and Southern Ave., SE", "Area_Acres": 130.72938549099999 }, "geometry": { "type": "Point", "coordinates": [ -76.996603759605051, 38.833627219351989 ] } },
{ "type": "Feature", "properties": { "NAME": "Kingman and Heritage Islands", "ADDRESS": "Anacostia River (both banks), between Benning Rd. and Railroad Bridge", "Area_Acres": 50.593315206299998 }, "geometry": { "type": "Point", "coordinates": [ -76.965170547818161, 38.891927132843996 ] } },
{ "type": "Feature", "properties": { "NAME": null, "ADDRESS": "2nd St., Massachusettes Ave and H St.", "Area_Acres": 1.1159898080799999 }, "geometry": { "type": "Point", "coordinates": [ -77.014187403531295, 38.899842773017639 ] } },
{ "type": "Feature", "properties": { "NAME": null, "ADDRESS": "19th and Lamont", "Area_Acres": 0.20939852975600001 }, "geometry": { "type": "Point", "coordinates": [ -77.044541097089009, 38.931487254060663 ] } },
{ "type": "Feature", "properties": { "NAME": "North Carolina Ave", "ADDRESS": "North Carolina, 8th St. and Independence Ave, NE", "Area_Acres": 0.200619086827 }, "geometry": { "type": "Point", "coordinates": [ -76.994698077908353, 38.887779669185583 ] } },
{ "type": "Feature", "properties": { "NAME": "Massachusetts Ave", "ADDRESS": "Massachusetts Ave, 7th St and Constitution Ave., NE", "Area_Acres": 0.31187826544500002 }, "geometry": { "type": "Point", "coordinates": [ -76.996590686147627, 38.892180290704943 ] } },
{ "type": "Feature", "properties": { "NAME": "14 Street, SE", "ADDRESS": "14th between U and V Sts, SE", "Area_Acres": 0.25281334643999998 }, "geometry": { "type": "Point", "coordinates": [ -76.985501310809212, 38.8654751702922 ] } },
{ "type": "Feature", "properties": { "NAME": "Capper Recreation Center", "ADDRESS": "East of 5th St between K and L St, SE", "Area_Acres": 3.7504583093599999 }, "geometry": { "type": "Point", "coordinates": [ -76.998443340337374, 38.877957109547339 ] } },
{ "type": "Feature", "properties": { "NAME": "Randle Circle", "ADDRESS": "Randle Circle, SE", "Area_Acres": 2.0543810221199998 }, "geometry": { "type": "Point", "coordinates": [ -76.961462521976244, 38.878085907377979 ] } },
{ "type": "Feature", "properties": { "NAME": "Parkside Recreation Center", "ADDRESS": "Anacostia Ave. and Hayes St., SE", "Area_Acres": 1.83288076999 }, "geometry": { "type": "Point", "coordinates": [ -76.952675425871121, 38.901051915720444 ] } },
{ "type": "Feature", "properties": { "NAME": "Arkansas Ave", "ADDRESS": "Webster St., 14th St., Arkansas Ave., NW", "Area_Acres": 0.18575713578799999 }, "geometry": { "type": "Point", "coordinates": [ -77.032494536036083, 38.94380826814136 ] } },
{ "type": "Feature", "properties": { "NAME": "Takoma School Recreation Center", "ADDRESS": "West of Piney Branch Rd. between Danlia St. and Highland Ave., NW", "Area_Acres": 5.8279711129900003 }, "geometry": { "type": "Point", "coordinates": [ -77.022695460528695, 38.975261084460818 ] } },
{ "type": "Feature", "properties": { "NAME": "Central Avenue", "ADDRESS": "Carlton Ave. and Central Ave., NW", "Area_Acres": 2.48034058536 }, "geometry": { "type": "Point", "coordinates": [ -76.966148487124372, 38.929322859481914 ] } },
{ "type": "Feature", "properties": { "NAME": "Potomac Avenue", "ADDRESS": "Between I St. and Potomac Ave. west of 13th St., SE", "Area_Acres": 0.35240253205700001 }, "geometry": { "type": "Point", "coordinates": [ -76.988970098785288, 38.879110682220848 ] } },
{ "type": "Feature", "properties": { "NAME": "F St. between 7th and 9th St., NW", "ADDRESS": "F St. between 7th and 9th St., NW", "Area_Acres": 1.34869674769 }, "geometry": { "type": "Point", "coordinates": [ -77.022935486821183, 38.897261208941828 ] } },
{ "type": "Feature", "properties": { "NAME": "Old 8th between E St and F St., NW", "ADDRESS": "8th St. between E St. and F St., NW", "Area_Acres": 0.62014692404000005 }, "geometry": { "type": "Point", "coordinates": [ -77.022948905290107, 38.896656454454273 ] } },
{ "type": "Feature", "properties": { "NAME": "G St. between 9th and 10th St., NW", "ADDRESS": "G St. between 9th and 10 St., NW", "Area_Acres": 1.1689378859399999 }, "geometry": { "type": "Point", "coordinates": [ -77.025012833427894, 38.898307036694227 ] } },
{ "type": "Feature", "properties": { "NAME": null, "ADDRESS": null, "Area_Acres": 0.163024453259 }, "geometry": { "type": "Point", "coordinates": [ -77.028265839482401, 38.91154389444997 ] } },
{ "type": "Feature", "properties": { "NAME": null, "ADDRESS": null, "Area_Acres": 0.18636512821099999 }, "geometry": { "type": "Point", "coordinates": [ -77.044723376752785, 38.911329848556726 ] } },
{ "type": "Feature", "properties": { "NAME": null, "ADDRESS": null, "Area_Acres": 0.16173997748300001 }, "geometry": { "type": "Point", "coordinates": [ -77.048467017713619, 38.911245917622011 ] } },
{ "type": "Feature", "properties": { "NAME": null, "ADDRESS": null, "Area_Acres": 0.097505884303900003 }, "geometry": { "type": "Point", "coordinates": [ -77.010435018032013, 38.911234593731436 ] } },
{ "type": "Feature", "properties": { "NAME": null, "ADDRESS": null, "Area_Acres": 0.124776761158 }, "geometry": { "type": "Point", "coordinates": [ -77.009298102264566, 38.911082306457999 ] } },
{ "type": "Feature", "properties": { "NAME": null, "ADDRESS": null, "Area_Acres": 0.40768780380800002 }, "geometry": { "type": "Point", "coordinates": [ -77.050161354969916, 38.910727437401086 ] } },
{ "type": "Feature", "properties": { "NAME": null, "ADDRESS": null, "Area_Acres": 0.15668284105800001 }, "geometry": { "type": "Point", "coordinates": [ -77.04688356821805, 38.910994634316999 ] } },
{ "type": "Feature", "properties": { "NAME": null, "ADDRESS": null, "Area_Acres": 0.540773843837 }, "geometry": { "type": "Point", "coordinates": [ -77.048985623930648, 38.910029188510194 ] } },
{ "type": "Feature", "properties": { "NAME": null, "ADDRESS": null, "Area_Acres": 2.52670413375 }, "geometry": { "type": "Point", "coordinates": [ -77.089741864542617, 38.909907307090634 ] } },
{ "type": "Feature", "properties": { "NAME": null, "ADDRESS": null, "Area_Acres": 0.17851087594000001 }, "geometry": { "type": "Point", "coordinates": [ -77.01627879602654, 38.910117220489958 ] } },
{ "type": "Feature", "properties": { "NAME": null, "ADDRESS": null, "Area_Acres": 2.4721901316600001 }, "geometry": { "type": "Point", "coordinates": [ -77.04343796815472, 38.909647509930885 ] } },
{ "type": "Feature", "properties": { "NAME": null, "ADDRESS": null, "Area_Acres": 2.4724954865300002 }, "geometry": { "type": "Point", "coordinates": [ -77.029628568086082, 38.909648909726627 ] } },
{ "type": "Feature", "properties": { "NAME": null, "ADDRESS": null, "Area_Acres": 0.37390119282000001 }, "geometry": { "type": "Point", "coordinates": [ -77.028409789102781, 38.909815287247561 ] } },
{ "type": "Feature", "properties": { "NAME": null, "ADDRESS": null, "Area_Acres": 0.27000125710700001 }, "geometry": { "type": "Point", "coordinates": [ -77.04459836605227, 38.909821067165154 ] } },
{ "type": "Feature", "properties": { "NAME": null, "ADDRESS": null, "Area_Acres": 0.28682559348600001 }, "geometry": { "type": "Point", "coordinates": [ -77.007157920329149, 38.909787703953945 ] } },
{ "type": "Feature", "properties": { "NAME": null, "ADDRESS": null, "Area_Acres": 123.94281130500001 }, "geometry": { "type": "Point", "coordinates": [ -76.966268860803652, 38.903835333444135 ] } },
{ "type": "Feature", "properties": { "NAME": null, "ADDRESS": null, "Area_Acres": 0.30146251126700002 }, "geometry": { "type": "Point", "coordinates": [ -77.029931707325247, 38.908779230337494 ] } },
{ "type": "Feature", "properties": { "NAME": null, "ADDRESS": null, "Area_Acres": 0.27001194895899999 }, "geometry": { "type": "Point", "coordinates": [ -77.006524166992492, 38.908431594275278 ] } },
{ "type": "Feature", "properties": { "NAME": null, "ADDRESS": null, "Area_Acres": 0.54064793468600003 }, "geometry": { "type": "Point", "coordinates": [ -77.030980239313038, 38.908014209679671 ] } },
{ "type": "Feature", "properties": { "NAME": null, "ADDRESS": null, "Area_Acres": 22.7929687054 }, "geometry": { "type": "Point", "coordinates": [ -76.947452330367867, 38.90520517362355 ] } },
{ "type": "Feature", "properties": { "NAME": null, "ADDRESS": null, "Area_Acres": 0.43224175257500003 }, "geometry": { "type": "Point", "coordinates": [ -77.037410184900921, 38.907235789029563 ] } },
{ "type": "Feature", "properties": { "NAME": null, "ADDRESS": null, "Area_Acres": 0.45721805194300003 }, "geometry": { "type": "Point", "coordinates": [ -77.035620523057005, 38.907241143833467 ] } },
{ "type": "Feature", "properties": { "NAME": null, "ADDRESS": null, "Area_Acres": 0.099899102916100005 }, "geometry": { "type": "Point", "coordinates": [ -77.008459041906022, 38.907361223309096 ] } },
{ "type": "Feature", "properties": { "NAME": null, "ADDRESS": null, "Area_Acres": 0.40502102785900002 }, "geometry": { "type": "Point", "coordinates": [ -77.036517289270492, 38.907241870327127 ] } },
{ "type": "Feature", "properties": { "NAME": null, "ADDRESS": null, "Area_Acres": 2.8382459872400001 }, "geometry": { "type": "Point", "coordinates": [ -76.96147761014771, 38.906385207926718 ] } },
{ "type": "Feature", "properties": { "NAME": null, "ADDRESS": null, "Area_Acres": 51.880464347500002 }, "geometry": { "type": "Point", "coordinates": [ -76.962343725360597, 38.901621997667732 ] } },
{ "type": "Feature", "properties": { "NAME": null, "ADDRESS": null, "Area_Acres": 0.32954016271999997 }, "geometry": { "type": "Point", "coordinates": [ -77.031666818985869, 38.906569695629138 ] } },
{ "type": "Feature", "properties": { "NAME": null, "ADDRESS": null, "Area_Acres": 6.7264196010799999 }, "geometry": { "type": "Point", "coordinates": [ -77.075759839494509, 38.905869732429757 ] } },
{ "type": "Feature", "properties": { "NAME": null, "ADDRESS": null, "Area_Acres": 0.176494699028 }, "geometry": { "type": "Point", "coordinates": [ -77.041497726563264, 38.905892000100515 ] } },
{ "type": "Feature", "properties": { "NAME": null, "ADDRESS": null, "Area_Acres": 0.115112268977 }, "geometry": { "type": "Point", "coordinates": [ -77.01510840574106, 38.905836275079984 ] } },
{ "type": "Feature", "properties": { "NAME": null, "ADDRESS": null, "Area_Acres": 0.65861636311799998 }, "geometry": { "type": "Point", "coordinates": [ -77.012607409846439, 38.905844197335938 ] } },
{ "type": "Feature", "properties": { "NAME": null, "ADDRESS": null, "Area_Acres": 0.45900244179100003 }, "geometry": { "type": "Point", "coordinates": [ -77.06029146075376, 38.905694803714781 ] } },
{ "type": "Feature", "properties": { "NAME": null, "ADDRESS": null, "Area_Acres": 0.37270542163699999 }, "geometry": { "type": "Point", "coordinates": [ -77.033223058901442, 38.905801673601331 ] } },
{ "type": "Feature", "properties": { "NAME": null, "ADDRESS": null, "Area_Acres": 0.43059034017600001 }, "geometry": { "type": "Point", "coordinates": [ -77.03194727833052, 38.905647448794959 ] } },
{ "type": "Feature", "properties": { "NAME": null, "ADDRESS": null, "Area_Acres": 0.099721125890600004 }, "geometry": { "type": "Point", "coordinates": [ -76.997587275329735, 38.905740728726279 ] } },
{ "type": "Feature", "properties": { "NAME": null, "ADDRESS": null, "Area_Acres": 1.3530865399300001 }, "geometry": { "type": "Point", "coordinates": [ -76.962844446334358, 38.905104849625829 ] } },
{ "type": "Feature", "properties": { "NAME": null, "ADDRESS": null, "Area_Acres": 0.13468048812899999 }, "geometry": { "type": "Point", "coordinates": [ -77.015041106810301, 38.905497608952679 ] } },
{ "type": "Feature", "properties": { "NAME": null, "ADDRESS": null, "Area_Acres": 0.292958646238 }, "geometry": { "type": "Point", "coordinates": [ -77.030759096843568, 38.905490159902961 ] } },
{ "type": "Feature", "properties": { "NAME": null, "ADDRESS": null, "Area_Acres": 0.88853385068299995 }, "geometry": { "type": "Point", "coordinates": [ -76.971277321797857, 38.905375533279908 ] } },
{ "type": "Feature", "properties": { "NAME": null, "ADDRESS": null, "Area_Acres": 0.47067428730999999 }, "geometry": { "type": "Point", "coordinates": [ -77.022292613345343, 38.893722650947097 ] } },
{ "type": "Feature", "properties": { "NAME": null, "ADDRESS": null, "Area_Acres": 0.15949875894500001 }, "geometry": { "type": "Point", "coordinates": [ -77.022937188805955, 38.893800422347766 ] } },
{ "type": "Feature", "properties": { "NAME": null, "ADDRESS": null, "Area_Acres": 2.45646428515 }, "geometry": { "type": "Point", "coordinates": [ -77.05439097769208, 38.893218092261222 ] } },
{ "type": "Feature", "properties": { "NAME": null, "ADDRESS": null, "Area_Acres": 0.56937766138000001 }, "geometry": { "type": "Point", "coordinates": [ -77.044146780435682, 38.893486244523302 ] } },
{ "type": "Feature", "properties": { "NAME": null, "ADDRESS": null, "Area_Acres": 0.52337407636400002 }, "geometry": { "type": "Point", "coordinates": [ -77.02356044045014, 38.89340462031052 ] } },
{ "type": "Feature", "properties": { "NAME": null, "ADDRESS": null, "Area_Acres": 1.0525941911000001 }, "geometry": { "type": "Point", "coordinates": [ -77.042262144082599, 38.893217707414536 ] } },
{ "type": "Feature", "properties": { "NAME": null, "ADDRESS": null, "Area_Acres": 5.8402015729099999 }, "geometry": { "type": "Point", "coordinates": [ -76.945260053922325, 38.891549077595521 ] } },
{ "type": "Feature", "properties": { "NAME": null, "ADDRESS": null, "Area_Acres": 2.7781755445699998 }, "geometry": { "type": "Point", "coordinates": [ -77.042723842703694, 38.892619889504928 ] } },
{ "type": "Feature", "properties": { "NAME": null, "ADDRESS": null, "Area_Acres": 0.59484833815600002 }, "geometry": { "type": "Point", "coordinates": [ -77.052858081721951, 38.892888483262055 ] } },
{ "type": "Feature", "properties": { "NAME": null, "ADDRESS": null, "Area_Acres": 0.35912833311499998 }, "geometry": { "type": "Point", "coordinates": [ -76.976936993344566, 38.893027846596858 ] } },
{ "type": "Feature", "properties": { "NAME": null, "ADDRESS": null, "Area_Acres": 0.48170406087399997 }, "geometry": { "type": "Point", "coordinates": [ -76.975562170764803, 38.893003485750121 ] } },
{ "type": "Feature", "properties": { "NAME": null, "ADDRESS": null, "Area_Acres": 1.3065594380300001 }, "geometry": { "type": "Point", "coordinates": [ -77.051689506125413, 38.892421151740486 ] } },
{ "type": "Feature", "properties": { "NAME": null, "ADDRESS": null, "Area_Acres": 0.16667618592200001 }, "geometry": { "type": "Point", "coordinates": [ -77.053559132462709, 38.892720507809152 ] } },
{ "type": "Feature", "properties": { "NAME": null, "ADDRESS": null, "Area_Acres": 0.57473554653699999 }, "geometry": { "type": "Point", "coordinates": [ -77.019524167606804, 38.887258412284396 ] } },
{ "type": "Feature", "properties": { "NAME": null, "ADDRESS": null, "Area_Acres": 0.14415341308599999 }, "geometry": { "type": "Point", "coordinates": [ -77.002324294759859, 38.887179670474829 ] } },
{ "type": "Feature", "properties": { "NAME": null, "ADDRESS": null, "Area_Acres": 0.43822601339799999 }, "geometry": { "type": "Point", "coordinates": [ -77.001299559709196, 38.886754915211903 ] } },
{ "type": "Feature", "properties": { "NAME": null, "ADDRESS": null, "Area_Acres": 0.63286181923999996 }, "geometry": { "type": "Point", "coordinates": [ -76.999394404747633, 38.886383478935798 ] } },
{ "type": "Feature", "properties": { "NAME": null, "ADDRESS": null, "Area_Acres": 16.9560621989 }, "geometry": { "type": "Point", "coordinates": [ -76.944835237147188, 38.883558227139133 ] } },
{ "type": "Feature", "properties": { "NAME": null, "ADDRESS": null, "Area_Acres": 0.28765463939800001 }, "geometry": { "type": "Point", "coordinates": [ -77.000003612963781, 38.886235741398018 ] } },
{ "type": "Feature", "properties": { "NAME": null, "ADDRESS": null, "Area_Acres": 0.44173493119399998 }, "geometry": { "type": "Point", "coordinates": [ -76.998739229417467, 38.886093328782316 ] } },
{ "type": "Feature", "properties": { "NAME": null, "ADDRESS": null, "Area_Acres": 1.38079446278 }, "geometry": { "type": "Point", "coordinates": [ -77.023022730936077, 38.886122731717279 ] } },
{ "type": "Feature", "properties": { "NAME": null, "ADDRESS": null, "Area_Acres": 0.43407532400299997 }, "geometry": { "type": "Point", "coordinates": [ -77.000286347027327, 38.88596923548257 ] } },
{ "type": "Feature", "properties": { "NAME": null, "ADDRESS": null, "Area_Acres": 0.225579804365 }, "geometry": { "type": "Point", "coordinates": [ -76.99901982598098, 38.885826836160554 ] } },
{ "type": "Feature", "properties": { "NAME": null, "ADDRESS": null, "Area_Acres": 0.64431146497699998 }, "geometry": { "type": "Point", "coordinates": [ -76.999644498466168, 38.885681717797155 ] } },
{ "type": "Feature", "properties": { "NAME": null, "ADDRESS": null, "Area_Acres": 0.70509529936699999 }, "geometry": { "type": "Point", "coordinates": [ -76.997326695514289, 38.885144251900172 ] } },
{ "type": "Feature", "properties": { "NAME": null, "ADDRESS": null, "Area_Acres": 0.13668661718700001 }, "geometry": { "type": "Point", "coordinates": [ -77.020191952425989, 38.884986308124461 ] } },
{ "type": "Feature", "properties": { "NAME": null, "ADDRESS": null, "Area_Acres": 0.64729594723600004 }, "geometry": { "type": "Point", "coordinates": [ -76.943965541325994, 38.88465933796779 ] } },
{ "type": "Feature", "properties": { "NAME": null, "ADDRESS": null, "Area_Acres": 2.20237385658 }, "geometry": { "type": "Point", "coordinates": [ -77.002767967832369, 38.884662571017245 ] } },
{ "type": "Feature", "properties": { "NAME": null, "ADDRESS": null, "Area_Acres": 0.26860692808199998 }, "geometry": { "type": "Point", "coordinates": [ -76.945419838726721, 38.884571814218106 ] } },
{ "type": "Feature", "properties": { "NAME": null, "ADDRESS": null, "Area_Acres": 0.31082373090900001 }, "geometry": { "type": "Point", "coordinates": [ -76.995603375807292, 38.884438890649172 ] } },
{ "type": "Feature", "properties": { "NAME": null, "ADDRESS": null, "Area_Acres": 1.5808382162000001 }, "geometry": { "type": "Point", "coordinates": [ -76.943870757201054, 38.883614662917701 ] } },
{ "type": "Feature", "properties": { "NAME": null, "ADDRESS": null, "Area_Acres": 0.30658682054199998 }, "geometry": { "type": "Point", "coordinates": [ -76.994327866998319, 38.883927295575887 ] } },
{ "type": "Feature", "properties": { "NAME": null, "ADDRESS": null, "Area_Acres": 0.113946918294 }, "geometry": { "type": "Point", "coordinates": [ -76.994722003744258, 38.883836288032462 ] } },
{ "type": "Feature", "properties": { "NAME": null, "ADDRESS": null, "Area_Acres": 0.26192704310699999 }, "geometry": { "type": "Point", "coordinates": [ -76.993232277302027, 38.88347281061953 ] } },
{ "type": "Feature", "properties": { "NAME": null, "ADDRESS": null, "Area_Acres": 370.25444144800002 }, "geometry": { "type": "Point", "coordinates": [ -76.949647267586769, 38.877451041016442 ] } },
{ "type": "Feature", "properties": { "NAME": null, "ADDRESS": null, "Area_Acres": 0.28089015688899999 }, "geometry": { "type": "Point", "coordinates": [ -76.992127813477268, 38.883019727817924 ] } },
{ "type": "Feature", "properties": { "NAME": null, "ADDRESS": null, "Area_Acres": 1.86747437977 }, "geometry": { "type": "Point", "coordinates": [ -76.999488688603236, 38.882965197478086 ] } },
{ "type": "Feature", "properties": { "NAME": null, "ADDRESS": null, "Area_Acres": 0.11929056649399999 }, "geometry": { "type": "Point", "coordinates": [ -76.99234447846797, 38.882847439298594 ] } },
{ "type": "Feature", "properties": { "NAME": null, "ADDRESS": null, "Area_Acres": 0.344796281112 }, "geometry": { "type": "Point", "coordinates": [ -76.990858345782797, 38.882505066325706 ] } },
{ "type": "Feature", "properties": { "NAME": null, "ADDRESS": null, "Area_Acres": 0.267438982484 }, "geometry": { "type": "Point", "coordinates": [ -76.990550257658853, 38.88267366196515 ] } },
{ "type": "Feature", "properties": { "NAME": null, "ADDRESS": null, "Area_Acres": 27.363804565399999 }, "geometry": { "type": "Point", "coordinates": [ -77.036720589240247, 38.88071387898318 ] } },
{ "type": "Feature", "properties": { "NAME": null, "ADDRESS": null, "Area_Acres": 11.6999262832 }, "geometry": { "type": "Point", "coordinates": [ -76.961032778140208, 38.881612157530057 ] } },
{ "type": "Feature", "properties": { "NAME": null, "ADDRESS": null, "Area_Acres": 1.1891592662999999 }, "geometry": { "type": "Point", "coordinates": [ -77.034257005883859, 38.880257497598606 ] } },
{ "type": "Feature", "properties": { "NAME": null, "ADDRESS": null, "Area_Acres": 0.57483186247100004 }, "geometry": { "type": "Point", "coordinates": [ -76.989283708437256, 38.881863209977006 ] } },
{ "type": "Feature", "properties": { "NAME": null, "ADDRESS": null, "Area_Acres": 329.527147829 }, "geometry": { "type": "Point", "coordinates": [ -77.027557010335741, 38.871144384089838 ] } },
{ "type": "Feature", "properties": { "NAME": null, "ADDRESS": null, "Area_Acres": 6.2095644486600001 }, "geometry": { "type": "Point", "coordinates": [ -77.025515802518541, 38.881563143653615 ] } },
{ "type": "Feature", "properties": { "NAME": null, "ADDRESS": null, "Area_Acres": 16.795514982099998 }, "geometry": { "type": "Point", "coordinates": [ -77.101966027431715, 38.921697973650708 ] } },
{ "type": "Feature", "properties": { "NAME": null, "ADDRESS": null, "Area_Acres": 12.1758242909 }, "geometry": { "type": "Point", "coordinates": [ -77.038324760703304, 38.990195118385479 ] } },
{ "type": "Feature", "properties": { "NAME": null, "ADDRESS": null, "Area_Acres": 21.129385545200002 }, "geometry": { "type": "Point", "coordinates": [ -77.058057781927587, 38.977986009435341 ] } },
{ "type": "Feature", "properties": { "NAME": null, "ADDRESS": null, "Area_Acres": 1.0436307252000001 }, "geometry": { "type": "Point", "coordinates": [ -77.026690596548349, 38.970721407301696 ] } },
{ "type": "Feature", "properties": { "NAME": null, "ADDRESS": null, "Area_Acres": 0.56502524026099998 }, "geometry": { "type": "Point", "coordinates": [ -77.07696542089387, 38.967517377604629 ] } },
{ "type": "Feature", "properties": { "NAME": null, "ADDRESS": null, "Area_Acres": 3.2267360946700001 }, "geometry": { "type": "Point", "coordinates": [ -77.029214062100294, 38.964372262550832 ] } },
{ "type": "Feature", "properties": { "NAME": null, "ADDRESS": null, "Area_Acres": 2.1080069647899999 }, "geometry": { "type": "Point", "coordinates": [ -77.030436852606059, 38.963564295686616 ] } },
{ "type": "Feature", "properties": { "NAME": null, "ADDRESS": null, "Area_Acres": 1.233321552 }, "geometry": { "type": "Point", "coordinates": [ -77.028769556110362, 38.963572180452864 ] } },
{ "type": "Feature", "properties": { "NAME": null, "ADDRESS": null, "Area_Acres": 1.0455312374500001 }, "geometry": { "type": "Point", "coordinates": [ -77.026851101704239, 38.963598632558892 ] } },
{ "type": "Feature", "properties": { "NAME": null, "ADDRESS": null, "Area_Acres": 3.04731363963 }, "geometry": { "type": "Point", "coordinates": [ -77.025209213445891, 38.963174984062036 ] } },
{ "type": "Feature", "properties": { "NAME": null, "ADDRESS": null, "Area_Acres": 1.7159308339499999 }, "geometry": { "type": "Point", "coordinates": [ -77.034878212847687, 38.962764838643672 ] } },
{ "type": "Feature", "properties": { "NAME": null, "ADDRESS": null, "Area_Acres": 9.1668132828700006 }, "geometry": { "type": "Point", "coordinates": [ -77.058561635326441, 38.961982097710504 ] } },
{ "type": "Feature", "properties": { "NAME": null, "ADDRESS": null, "Area_Acres": 1.06117995167 }, "geometry": { "type": "Point", "coordinates": [ -77.035723659412895, 38.96271144625301 ] } },
{ "type": "Feature", "properties": { "NAME": null, "ADDRESS": null, "Area_Acres": 1.68619677543 }, "geometry": { "type": "Point", "coordinates": [ -77.031381390419369, 38.962277857333774 ] } },
{ "type": "Feature", "properties": { "NAME": null, "ADDRESS": null, "Area_Acres": 0.96054663236000004 }, "geometry": { "type": "Point", "coordinates": [ -77.023972383361695, 38.961898538733664 ] } },
{ "type": "Feature", "properties": { "NAME": null, "ADDRESS": null, "Area_Acres": 0.84641737999800004 }, "geometry": { "type": "Point", "coordinates": [ -77.034188036673058, 38.961921450760052 ] } },
{ "type": "Feature", "properties": { "NAME": null, "ADDRESS": null, "Area_Acres": 0.49932407780900001 }, "geometry": { "type": "Point", "coordinates": [ -77.03289488983053, 38.961749492429618 ] } },
{ "type": "Feature", "properties": { "NAME": null, "ADDRESS": null, "Area_Acres": 0.95756830711200003 }, "geometry": { "type": "Point", "coordinates": [ -77.023953719725711, 38.960749391085486 ] } },
{ "type": "Feature", "properties": { "NAME": null, "ADDRESS": null, "Area_Acres": 20.455814164100001 }, "geometry": { "type": "Point", "coordinates": [ -77.014317099828403, 38.960110170619323 ] } },
{ "type": "Feature", "properties": { "NAME": null, "ADDRESS": null, "Area_Acres": 3.0947048235099999 }, "geometry": { "type": "Point", "coordinates": [ -77.010850390719952, 38.960823227209346 ] } },
{ "type": "Feature", "properties": { "NAME": null, "ADDRESS": null, "Area_Acres": 4.2149566402499996 }, "geometry": { "type": "Point", "coordinates": [ -77.008171087581843, 38.960666061906863 ] } },
{ "type": "Feature", "properties": { "NAME": null, "ADDRESS": null, "Area_Acres": 1.1174894265399999 }, "geometry": { "type": "Point", "coordinates": [ -77.006871759904712, 38.960270108927105 ] } },
{ "type": "Feature", "properties": { "NAME": null, "ADDRESS": null, "Area_Acres": 1.3207442843899999 }, "geometry": { "type": "Point", "coordinates": [ -77.0063204625297, 38.959874416798314 ] } },
{ "type": "Feature", "properties": { "NAME": null, "ADDRESS": null, "Area_Acres": 0.26796478281500002 }, "geometry": { "type": "Point", "coordinates": [ -77.024565584563874, 38.960004078153013 ] } },
{ "type": "Feature", "properties": { "NAME": null, "ADDRESS": null, "Area_Acres": 1.5117053925799999 }, "geometry": { "type": "Point", "coordinates": [ -77.023300639233838, 38.959694501437163 ] } },
{ "type": "Feature", "properties": { "NAME": null, "ADDRESS": null, "Area_Acres": 0.37532525010399997 }, "geometry": { "type": "Point", "coordinates": [ -77.023813773306969, 38.959380447609433 ] } },
{ "type": "Feature", "properties": { "NAME": null, "ADDRESS": null, "Area_Acres": 0.85368931521699998 }, "geometry": { "type": "Point", "coordinates": [ -77.021800504443831, 38.95916575070482 ] } },
{ "type": "Feature", "properties": { "NAME": null, "ADDRESS": null, "Area_Acres": 0.91465473773299999 }, "geometry": { "type": "Point", "coordinates": [ -77.005389198955584, 38.958938340495791 ] } },
{ "type": "Feature", "properties": { "NAME": null, "ADDRESS": null, "Area_Acres": 0.43134072653200001 }, "geometry": { "type": "Point", "coordinates": [ -77.02078518900656, 38.958946188056778 ] } },
{ "type": "Feature", "properties": { "NAME": null, "ADDRESS": null, "Area_Acres": 5.5011237944099998 }, "geometry": { "type": "Point", "coordinates": [ -77.067968893307224, 38.957424970228828 ] } },
{ "type": "Feature", "properties": { "NAME": null, "ADDRESS": null, "Area_Acres": 6.0346926600600002 }, "geometry": { "type": "Point", "coordinates": [ -77.058354533098608, 38.957747067121218 ] } },
{ "type": "Feature", "properties": { "NAME": null, "ADDRESS": null, "Area_Acres": 0.68464152348700003 }, "geometry": { "type": "Point", "coordinates": [ -77.064438336019649, 38.958485492332848 ] } },
{ "type": "Feature", "properties": { "NAME": null, "ADDRESS": null, "Area_Acres": 1.2512086395999999 }, "geometry": { "type": "Point", "coordinates": [ -77.005393578894726, 38.958214727920584 ] } },
{ "type": "Feature", "properties": { "NAME": null, "ADDRESS": null, "Area_Acres": 0.18273439943399999 }, "geometry": { "type": "Point", "coordinates": [ -77.020191572606507, 38.958574935055196 ] } },
{ "type": "Feature", "properties": { "NAME": null, "ADDRESS": null, "Area_Acres": 0.524723888764 }, "geometry": { "type": "Point", "coordinates": [ -77.0166481981706, 38.958543509575591 ] } },
{ "type": "Feature", "properties": { "NAME": null, "ADDRESS": null, "Area_Acres": 1.62462816155 }, "geometry": { "type": "Point", "coordinates": [ -77.01901413501767, 38.958475939455703 ] } },
{ "type": "Feature", "properties": { "NAME": null, "ADDRESS": null, "Area_Acres": 0.54005059691900004 }, "geometry": { "type": "Point", "coordinates": [ -77.017563181820563, 38.958545116583942 ] } },
{ "type": "Feature", "properties": { "NAME": null, "ADDRESS": null, "Area_Acres": 3.3519037261800002 }, "geometry": { "type": "Point", "coordinates": [ -77.066702553670424, 38.957605735007263 ] } },
{ "type": "Feature", "properties": { "NAME": null, "ADDRESS": null, "Area_Acres": 3.4605088205399999 }, "geometry": { "type": "Point", "coordinates": [ -77.063526113138792, 38.957800068452698 ] } },
{ "type": "Feature", "properties": { "NAME": null, "ADDRESS": null, "Area_Acres": 0.186029178731 }, "geometry": { "type": "Point", "coordinates": [ -77.059710179683677, 38.957787224039102 ] } },
{ "type": "Feature", "properties": { "NAME": null, "ADDRESS": null, "Area_Acres": 1.17686082896 }, "geometry": { "type": "Point", "coordinates": [ -77.004608911304103, 38.957161872765823 ] } },
{ "type": "Feature", "properties": { "NAME": null, "ADDRESS": null, "Area_Acres": 1.05143719408 }, "geometry": { "type": "Point", "coordinates": [ -77.005138897465969, 38.95712760605943 ] } },
{ "type": "Feature", "properties": { "NAME": null, "ADDRESS": null, "Area_Acres": 0.147552863486 }, "geometry": { "type": "Point", "coordinates": [ -77.063641484310736, 38.95703445087355 ] } },
{ "type": "Feature", "properties": { "NAME": null, "ADDRESS": null, "Area_Acres": 2.3588557724800001 }, "geometry": { "type": "Point", "coordinates": [ -77.004885670557073, 38.956174067259937 ] } },
{ "type": "Feature", "properties": { "NAME": null, "ADDRESS": null, "Area_Acres": 5.49890994157 }, "geometry": { "type": "Point", "coordinates": [ -77.091488236748518, 38.955385868887319 ] } },
{ "type": "Feature", "properties": { "NAME": null, "ADDRESS": null, "Area_Acres": 0.36419118514799997 }, "geometry": { "type": "Point", "coordinates": [ -77.068918673966792, 38.955094207468214 ] } },
{ "type": "Feature", "properties": { "NAME": null, "ADDRESS": null, "Area_Acres": 11.1226207084 }, "geometry": { "type": "Point", "coordinates": [ -77.077833037783037, 38.953534958361352 ] } },
{ "type": "Feature", "properties": { "NAME": null, "ADDRESS": null, "Area_Acres": 6.83505009796 }, "geometry": { "type": "Point", "coordinates": [ -77.07363230719956, 38.953937954035851 ] } },
{ "type": "Feature", "properties": { "NAME": null, "ADDRESS": null, "Area_Acres": 0.61462515042200005 }, "geometry": { "type": "Point", "coordinates": [ -77.068999380051878, 38.954323389977048 ] } },
{ "type": "Feature", "properties": { "NAME": null, "ADDRESS": null, "Area_Acres": 0.68212122805200004 }, "geometry": { "type": "Point", "coordinates": [ -77.072185723981519, 38.954410951047301 ] } },
{ "type": "Feature", "properties": { "NAME": null, "ADDRESS": null, "Area_Acres": 0.72935269244900003 }, "geometry": { "type": "Point", "coordinates": [ -77.069384953306198, 38.953586393257908 ] } },
{ "type": "Feature", "properties": { "NAME": null, "ADDRESS": null, "Area_Acres": 0.15390969899500001 }, "geometry": { "type": "Point", "coordinates": [ -77.069943769471323, 38.953480133397591 ] } },
{ "type": "Feature", "properties": { "NAME": null, "ADDRESS": null, "Area_Acres": 15.773750487899999 }, "geometry": { "type": "Point", "coordinates": [ -76.992278398229629, 38.952864275211525 ] } },
{ "type": "Feature", "properties": { "NAME": null, "ADDRESS": null, "Area_Acres": 2.4989324615499999 }, "geometry": { "type": "Point", "coordinates": [ -77.072461902037645, 38.952423378555189 ] } },
{ "type": "Feature", "properties": { "NAME": null, "ADDRESS": null, "Area_Acres": 4.9079655959800004 }, "geometry": { "type": "Point", "coordinates": [ -77.075377369925903, 38.952060156879405 ] } },
{ "type": "Feature", "properties": { "NAME": null, "ADDRESS": null, "Area_Acres": 10.112801177 }, "geometry": { "type": "Point", "coordinates": [ -76.999512455577047, 38.951926617735715 ] } },
{ "type": "Feature", "properties": { "NAME": null, "ADDRESS": null, "Area_Acres": 43.6882477415 }, "geometry": { "type": "Point", "coordinates": [ -77.00493127772242, 38.949006957656849 ] } },
{ "type": "Feature", "properties": { "NAME": null, "ADDRESS": null, "Area_Acres": 4.6411253042 }, "geometry": { "type": "Point", "coordinates": [ -77.075581379600976, 38.951292286552764 ] } },
{ "type": "Feature", "properties": { "NAME": null, "ADDRESS": null, "Area_Acres": 0.50025706363400002 }, "geometry": { "type": "Point", "coordinates": [ -77.078228438025093, 38.950450174071023 ] } },
{ "type": "Feature", "properties": { "NAME": null, "ADDRESS": null, "Area_Acres": 0.83872103968300005 }, "geometry": { "type": "Point", "coordinates": [ -77.078321829591147, 38.948993032554846 ] } },
{ "type": "Feature", "properties": { "NAME": null, "ADDRESS": null, "Area_Acres": 0.326750140011 }, "geometry": { "type": "Point", "coordinates": [ -77.100208833567748, 38.949000817299755 ] } },
{ "type": "Feature", "properties": { "NAME": null, "ADDRESS": null, "Area_Acres": 0.71435246509500006 }, "geometry": { "type": "Point", "coordinates": [ -77.100887486053267, 38.948857971583138 ] } },
{ "type": "Feature", "properties": { "NAME": null, "ADDRESS": null, "Area_Acres": 0.48619581989100003 }, "geometry": { "type": "Point", "coordinates": [ -77.021610937468338, 38.948169984456975 ] } },
{ "type": "Feature", "properties": { "NAME": null, "ADDRESS": null, "Area_Acres": 0.29283352761800002 }, "geometry": { "type": "Point", "coordinates": [ -77.022134766814133, 38.948161424578039 ] } },
{ "type": "Feature", "properties": { "NAME": null, "ADDRESS": null, "Area_Acres": 0.16642612480899999 }, "geometry": { "type": "Point", "coordinates": [ -77.078368505419888, 38.947583382452315 ] } },
{ "type": "Feature", "properties": { "NAME": null, "ADDRESS": null, "Area_Acres": 0.27480519719800001 }, "geometry": { "type": "Point", "coordinates": [ -77.078697563346097, 38.947561080370726 ] } },
{ "type": "Feature", "properties": { "NAME": null, "ADDRESS": null, "Area_Acres": 2.27414948868 }, "geometry": { "type": "Point", "coordinates": [ -77.02188287951607, 38.947326132516615 ] } },
{ "type": "Feature", "properties": { "NAME": null, "ADDRESS": null, "Area_Acres": 22.915284589300001 }, "geometry": { "type": "Point", "coordinates": [ -77.059660458028091, 38.946024499769123 ] } },
{ "type": "Feature", "properties": { "NAME": null, "ADDRESS": null, "Area_Acres": 0.432067675288 }, "geometry": { "type": "Point", "coordinates": [ -77.078183842177907, 38.947235647156091 ] } },
{ "type": "Feature", "properties": { "NAME": null, "ADDRESS": null, "Area_Acres": 0.476240562609 }, "geometry": { "type": "Point", "coordinates": [ -77.078771498181169, 38.946946078546816 ] } },
{ "type": "Feature", "properties": { "NAME": null, "ADDRESS": null, "Area_Acres": 0.62886460279699996 }, "geometry": { "type": "Point", "coordinates": [ -76.978280524885719, 38.946624514222627 ] } },
{ "type": "Feature", "properties": { "NAME": null, "ADDRESS": null, "Area_Acres": 0.51217358890300002 }, "geometry": { "type": "Point", "coordinates": [ -77.022149618872902, 38.946482570606385 ] } },
{ "type": "Feature", "properties": { "NAME": null, "ADDRESS": null, "Area_Acres": 0.32628968862199997 }, "geometry": { "type": "Point", "coordinates": [ -77.021613638150555, 38.946488185370733 ] } },
{ "type": "Feature", "properties": { "NAME": null, "ADDRESS": null, "Area_Acres": 0.167606841127 }, "geometry": { "type": "Point", "coordinates": [ -77.07858698592851, 38.946392647855042 ] } },
{ "type": "Feature", "properties": { "NAME": null, "ADDRESS": null, "Area_Acres": 0.16578297400399999 }, "geometry": { "type": "Point", "coordinates": [ -77.07893471589847, 38.946136828629328 ] } },
{ "type": "Feature", "properties": { "NAME": null, "ADDRESS": null, "Area_Acres": 2.72422365195 }, "geometry": { "type": "Point", "coordinates": [ -76.9758622521597, 38.944681957777767 ] } },
{ "type": "Feature", "properties": { "NAME": null, "ADDRESS": null, "Area_Acres": 1.1373285282200001 }, "geometry": { "type": "Point", "coordinates": [ -77.080668705785598, 38.943562143964684 ] } },
{ "type": "Feature", "properties": { "NAME": null, "ADDRESS": null, "Area_Acres": 0.28014576890999998 }, "geometry": { "type": "Point", "coordinates": [ -77.01947791443736, 38.943956141100287 ] } },
{ "type": "Feature", "properties": { "NAME": null, "ADDRESS": null, "Area_Acres": 2.4632922164600002 }, "geometry": { "type": "Point", "coordinates": [ -77.019272395283707, 38.943118202573203 ] } },
{ "type": "Feature", "properties": { "NAME": null, "ADDRESS": null, "Area_Acres": 0.293077880387 }, "geometry": { "type": "Point", "coordinates": [ -77.081823282531801, 38.942951203208956 ] } },
{ "type": "Feature", "properties": { "NAME": null, "ADDRESS": null, "Area_Acres": 16.835838005900001 }, "geometry": { "type": "Point", "coordinates": [ -77.078637079933529, 38.937064266083965 ] } },
{ "type": "Feature", "properties": { "NAME": null, "ADDRESS": null, "Area_Acres": 5.98426899632 }, "geometry": { "type": "Point", "coordinates": [ -76.972942030803068, 38.941638861711056 ] } },
{ "type": "Feature", "properties": { "NAME": null, "ADDRESS": null, "Area_Acres": 0.25239892055099999 }, "geometry": { "type": "Point", "coordinates": [ -77.01898434361506, 38.942288555589975 ] } },
{ "type": "Feature", "properties": { "NAME": null, "ADDRESS": null, "Area_Acres": 22.457582545000001 }, "geometry": { "type": "Point", "coordinates": [ -77.079893488721268, 38.937873940982399 ] } },
{ "type": "Feature", "properties": { "NAME": null, "ADDRESS": null, "Area_Acres": 25.0379439805 }, "geometry": { "type": "Point", "coordinates": [ -76.970401702889646, 38.939303097937611 ] } },
{ "type": "Feature", "properties": { "NAME": null, "ADDRESS": null, "Area_Acres": 0.38923340809899998 }, "geometry": { "type": "Point", "coordinates": [ -77.053403423534633, 38.940857522034889 ] } },
{ "type": "Feature", "properties": { "NAME": null, "ADDRESS": null, "Area_Acres": 9.9995540713400004 }, "geometry": { "type": "Point", "coordinates": [ -77.035245808734203, 38.939005856383297 ] } },
{ "type": "Feature", "properties": { "NAME": null, "ADDRESS": null, "Area_Acres": 44.136182832300001 }, "geometry": { "type": "Point", "coordinates": [ -77.059524471611823, 38.938929544576958 ] } },
{ "type": "Feature", "properties": { "NAME": null, "ADDRESS": null, "Area_Acres": 1.3892338413800001 }, "geometry": { "type": "Point", "coordinates": [ -77.085090294225623, 38.939169490470796 ] } },
{ "type": "Feature", "properties": { "NAME": null, "ADDRESS": null, "Area_Acres": 0.135934144343 }, "geometry": { "type": "Point", "coordinates": [ -77.086173677587027, 38.938048396915434 ] } },
{ "type": "Feature", "properties": { "NAME": null, "ADDRESS": null, "Area_Acres": 0.51380584586300004 }, "geometry": { "type": "Point", "coordinates": [ -77.085897946548613, 38.937915436935008 ] } },
{ "type": "Feature", "properties": { "NAME": null, "ADDRESS": null, "Area_Acres": 0.12641261589200001 }, "geometry": { "type": "Point", "coordinates": [ -77.085614359595823, 38.93777925602366 ] } },
{ "type": "Feature", "properties": { "NAME": null, "ADDRESS": null, "Area_Acres": 0.38906232352199999 }, "geometry": { "type": "Point", "coordinates": [ -76.966570254691106, 38.937276741611846 ] } },
{ "type": "Feature", "properties": { "NAME": null, "ADDRESS": null, "Area_Acres": 0.12899854172200001 }, "geometry": { "type": "Point", "coordinates": [ -76.966215398318397, 38.937010514898915 ] } },
{ "type": "Feature", "properties": { "NAME": null, "ADDRESS": null, "Area_Acres": 18.776004593 }, "geometry": { "type": "Point", "coordinates": [ -77.117194871563186, 38.934699772309763 ] } },
{ "type": "Feature", "properties": { "NAME": null, "ADDRESS": null, "Area_Acres": 0.260565041833 }, "geometry": { "type": "Point", "coordinates": [ -76.965667334830869, 38.936340412477691 ] } },
{ "type": "Feature", "properties": { "NAME": null, "ADDRESS": null, "Area_Acres": 0.65207742242 }, "geometry": { "type": "Point", "coordinates": [ -76.964894479064867, 38.935949356400663 ] } },
{ "type": "Feature", "properties": { "NAME": null, "ADDRESS": null, "Area_Acres": 7.64412217897 }, "geometry": { "type": "Point", "coordinates": [ -76.987606579007476, 38.935429807234478 ] } },
{ "type": "Feature", "properties": { "NAME": null, "ADDRESS": null, "Area_Acres": 0.449157330094 }, "geometry": { "type": "Point", "coordinates": [ -76.964187231960352, 38.935410352054085 ] } },
{ "type": "Feature", "properties": { "NAME": null, "ADDRESS": null, "Area_Acres": 0.51114829212099999 }, "geometry": { "type": "Point", "coordinates": [ -76.963314635302893, 38.934789117300411 ] } },
{ "type": "Feature", "properties": { "NAME": null, "ADDRESS": null, "Area_Acres": 2.6205721046099999 }, "geometry": { "type": "Point", "coordinates": [ -77.116056769551278, 38.93373881444208 ] } },
{ "type": "Feature", "properties": { "NAME": null, "ADDRESS": null, "Area_Acres": 32.127955361200002 }, "geometry": { "type": "Point", "coordinates": [ -77.114742913641678, 38.931834808063911 ] } },
{ "type": "Feature", "properties": { "NAME": null, "ADDRESS": null, "Area_Acres": 0.14153580868900001 }, "geometry": { "type": "Point", "coordinates": [ -77.114765223660356, 38.934509648248827 ] } },
{ "type": "Feature", "properties": { "NAME": null, "ADDRESS": null, "Area_Acres": 10.231015169899999 }, "geometry": { "type": "Point", "coordinates": [ -77.081002503653636, 38.932694747953818 ] } },
{ "type": "Feature", "properties": { "NAME": null, "ADDRESS": null, "Area_Acres": 0.225717449465 }, "geometry": { "type": "Point", "coordinates": [ -76.962530509857686, 38.934255307999244 ] } },
{ "type": "Feature", "properties": { "NAME": null, "ADDRESS": null, "Area_Acres": 0.62110493631399999 }, "geometry": { "type": "Point", "coordinates": [ -76.962008128827136, 38.933538450942521 ] } },
{ "type": "Feature", "properties": { "NAME": null, "ADDRESS": null, "Area_Acres": 3.8491168415199999 }, "geometry": { "type": "Point", "coordinates": [ -76.960689053606686, 38.932529853916705 ] } },
{ "type": "Feature", "properties": { "NAME": null, "ADDRESS": null, "Area_Acres": 5.6508191315199996 }, "geometry": { "type": "Point", "coordinates": [ -77.079927690264029, 38.931736395242005 ] } },
{ "type": "Feature", "properties": { "NAME": null, "ADDRESS": null, "Area_Acres": 55.299880760100002 }, "geometry": { "type": "Point", "coordinates": [ -77.095134535180605, 38.926954584406225 ] } },
{ "type": "Feature", "properties": { "NAME": null, "ADDRESS": null, "Area_Acres": 16.983137235000001 }, "geometry": { "type": "Point", "coordinates": [ -77.046042987598341, 38.929866864684158 ] } },
{ "type": "Feature", "properties": { "NAME": null, "ADDRESS": null, "Area_Acres": 5.1701296145600004 }, "geometry": { "type": "Point", "coordinates": [ -77.059111591253497, 38.930524304800684 ] } },
{ "type": "Feature", "properties": { "NAME": null, "ADDRESS": null, "Area_Acres": 0.235901587701 }, "geometry": { "type": "Point", "coordinates": [ -77.036227878404119, 38.931312564047317 ] } },
{ "type": "Feature", "properties": { "NAME": null, "ADDRESS": null, "Area_Acres": 0.92846642527099998 }, "geometry": { "type": "Point", "coordinates": [ -76.958423191963504, 38.930883848992195 ] } },
{ "type": "Feature", "properties": { "NAME": null, "ADDRESS": null, "Area_Acres": 3.03282049293 }, "geometry": { "type": "Point", "coordinates": [ -77.09576897860029, 38.930136270197508 ] } },
{ "type": "Feature", "properties": { "NAME": null, "ADDRESS": null, "Area_Acres": 9.0553462241199991 }, "geometry": { "type": "Point", "coordinates": [ -77.109717303630717, 38.927895867265384 ] } },
{ "type": "Feature", "properties": { "NAME": null, "ADDRESS": null, "Area_Acres": 1.56683334973 }, "geometry": { "type": "Point", "coordinates": [ -76.957384738474985, 38.93002896018298 ] } },
{ "type": "Feature", "properties": { "NAME": null, "ADDRESS": null, "Area_Acres": 0.27233984169699998 }, "geometry": { "type": "Point", "coordinates": [ -77.036683939321108, 38.930248283860813 ] } },
{ "type": "Feature", "properties": { "NAME": null, "ADDRESS": null, "Area_Acres": 226.286953737 }, "geometry": { "type": "Point", "coordinates": [ -77.100683265465534, 38.917718101119029 ] } },
{ "type": "Feature", "properties": { "NAME": null, "ADDRESS": null, "Area_Acres": 8.7221245514699994 }, "geometry": { "type": "Point", "coordinates": [ -77.081277723258694, 38.928347644611669 ] } },
{ "type": "Feature", "properties": { "NAME": null, "ADDRESS": null, "Area_Acres": 5.1903563347599997 }, "geometry": { "type": "Point", "coordinates": [ -77.082019839920477, 38.929040287660598 ] } },
{ "type": "Feature", "properties": { "NAME": null, "ADDRESS": null, "Area_Acres": 0.46687627107000002 }, "geometry": { "type": "Point", "coordinates": [ -77.061280516261959, 38.929958826715357 ] } },
{ "type": "Feature", "properties": { "NAME": null, "ADDRESS": null, "Area_Acres": 1.29209157853 }, "geometry": { "type": "Point", "coordinates": [ -77.07263840816411, 38.927861959435859 ] } },
{ "type": "Feature", "properties": { "NAME": null, "ADDRESS": null, "Area_Acres": 0.91723630124400002 }, "geometry": { "type": "Point", "coordinates": [ -77.043131138449766, 38.927440524878115 ] } },
{ "type": "Feature", "properties": { "NAME": null, "ADDRESS": null, "Area_Acres": 0.32133562377899999 }, "geometry": { "type": "Point", "coordinates": [ -77.03668176719188, 38.927556637891044 ] } },
{ "type": "Feature", "properties": { "NAME": null, "ADDRESS": null, "Area_Acres": 61.235548813100003 }, "geometry": { "type": "Point", "coordinates": [ -77.084677042093247, 38.922751215358993 ] } },
{ "type": "Feature", "properties": { "NAME": null, "ADDRESS": null, "Area_Acres": 0.56813370983900002 }, "geometry": { "type": "Point", "coordinates": [ -77.04288619051853, 38.927018627216349 ] } },
{ "type": "Feature", "properties": { "NAME": null, "ADDRESS": null, "Area_Acres": 31.8366872235 }, "geometry": { "type": "Point", "coordinates": [ -77.082706084807398, 38.9217362118859 ] } },
{ "type": "Feature", "properties": { "NAME": null, "ADDRESS": null, "Area_Acres": 0.73307127776000003 }, "geometry": { "type": "Point", "coordinates": [ -77.036958304426662, 38.926726640433451 ] } },
{ "type": "Feature", "properties": { "NAME": null, "ADDRESS": null, "Area_Acres": 6.7322614879199998 }, "geometry": { "type": "Point", "coordinates": [ -77.087906205363296, 38.926255937621328 ] } },
{ "type": "Feature", "properties": { "NAME": null, "ADDRESS": null, "Area_Acres": 23.975328614199999 }, "geometry": { "type": "Point", "coordinates": [ -77.06263212351908, 38.922708191939016 ] } },
{ "type": "Feature", "properties": { "NAME": null, "ADDRESS": null, "Area_Acres": 7.7238004837399998 }, "geometry": { "type": "Point", "coordinates": [ -77.092202818232124, 38.926128464709656 ] } },
{ "type": "Feature", "properties": { "NAME": null, "ADDRESS": null, "Area_Acres": 4.3931828813799996 }, "geometry": { "type": "Point", "coordinates": [ -77.071222444313136, 38.916816759158849 ] } },
{ "type": "Feature", "properties": { "NAME": null, "ADDRESS": null, "Area_Acres": 5.5191855299799997 }, "geometry": { "type": "Point", "coordinates": [ -77.086687819776117, 38.916663389964064 ] } },
{ "type": "Feature", "properties": { "NAME": null, "ADDRESS": null, "Area_Acres": 2.6467059759299998 }, "geometry": { "type": "Point", "coordinates": [ -77.097968791723474, 38.915330204513552 ] } },
{ "type": "Feature", "properties": { "NAME": null, "ADDRESS": null, "Area_Acres": 0.27107547970899998 }, "geometry": { "type": "Point", "coordinates": [ -77.046392116937056, 38.916675110932026 ] } },
{ "type": "Feature", "properties": { "NAME": null, "ADDRESS": null, "Area_Acres": 0.30699063575300001 }, "geometry": { "type": "Point", "coordinates": [ -77.025768949605492, 38.916729949793194 ] } },
{ "type": "Feature", "properties": { "NAME": null, "ADDRESS": null, "Area_Acres": 0.17841130738700001 }, "geometry": { "type": "Point", "coordinates": [ -77.036697230141712, 38.91655256704135 ] } },
{ "type": "Feature", "properties": { "NAME": null, "ADDRESS": null, "Area_Acres": 15.265457295599999 }, "geometry": { "type": "Point", "coordinates": [ -77.060411123406951, 38.914165496523623 ] } },
{ "type": "Feature", "properties": { "NAME": null, "ADDRESS": null, "Area_Acres": 0.167292679641 }, "geometry": { "type": "Point", "coordinates": [ -77.021005068020372, 38.915716161460857 ] } },
{ "type": "Feature", "properties": { "NAME": null, "ADDRESS": null, "Area_Acres": 0.35448209753100002 }, "geometry": { "type": "Point", "coordinates": [ -77.025769040690719, 38.915089898021144 ] } },
{ "type": "Feature", "properties": { "NAME": null, "ADDRESS": null, "Area_Acres": 0.31636647644299998 }, "geometry": { "type": "Point", "coordinates": [ -77.026189993195317, 38.915042888672993 ] } },
{ "type": "Feature", "properties": { "NAME": null, "ADDRESS": null, "Area_Acres": 0.93570396204399997 }, "geometry": { "type": "Point", "coordinates": [ -76.943493538287015, 38.915007137044974 ] } },
{ "type": "Feature", "properties": { "NAME": null, "ADDRESS": null, "Area_Acres": 0.13913789283200001 }, "geometry": { "type": "Point", "coordinates": [ -77.026804522553334, 38.914608406468638 ] } },
{ "type": "Feature", "properties": { "NAME": null, "ADDRESS": null, "Area_Acres": 0.63748318497000001 }, "geometry": { "type": "Point", "coordinates": [ -76.943211764636587, 38.914578770527577 ] } },
{ "type": "Feature", "properties": { "NAME": null, "ADDRESS": null, "Area_Acres": 1.0760931017199999 }, "geometry": { "type": "Point", "coordinates": [ -76.989605300140596, 38.913775226583212 ] } },
{ "type": "Feature", "properties": { "NAME": null, "ADDRESS": null, "Area_Acres": 0.197149269062 }, "geometry": { "type": "Point", "coordinates": [ -77.052803238022804, 38.913930710689222 ] } },
{ "type": "Feature", "properties": { "NAME": null, "ADDRESS": null, "Area_Acres": 0.104870245737 }, "geometry": { "type": "Point", "coordinates": [ -77.05684452993259, 38.905086261079113 ] } },
{ "type": "Feature", "properties": { "NAME": null, "ADDRESS": null, "Area_Acres": 0.74770127050099999 }, "geometry": { "type": "Point", "coordinates": [ -77.068239879428631, 38.90474082110444 ] } },
{ "type": "Feature", "properties": { "NAME": null, "ADDRESS": null, "Area_Acres": 0.197948217471 }, "geometry": { "type": "Point", "coordinates": [ -77.069906972088987, 38.904792323800031 ] } },
{ "type": "Feature", "properties": { "NAME": null, "ADDRESS": null, "Area_Acres": 0.95757475990300001 }, "geometry": { "type": "Point", "coordinates": [ -77.069375411889055, 38.904586009815191 ] } },
{ "type": "Feature", "properties": { "NAME": null, "ADDRESS": null, "Area_Acres": 0.49199406949699998 }, "geometry": { "type": "Point", "coordinates": [ -77.059506821031405, 38.90440567522937 ] } },
{ "type": "Feature", "properties": { "NAME": null, "ADDRESS": null, "Area_Acres": 4.2526574094800003 }, "geometry": { "type": "Point", "coordinates": [ -77.065465616884751, 38.904227054672972 ] } },
{ "type": "Feature", "properties": { "NAME": null, "ADDRESS": null, "Area_Acres": 0.58373288158299996 }, "geometry": { "type": "Point", "coordinates": [ -77.061962019771286, 38.904238847676154 ] } },
{ "type": "Feature", "properties": { "NAME": null, "ADDRESS": null, "Area_Acres": 0.25556133534199998 }, "geometry": { "type": "Point", "coordinates": [ -77.060657500508427, 38.904198882588361 ] } },
{ "type": "Feature", "properties": { "NAME": null, "ADDRESS": null, "Area_Acres": 0.326233361173 }, "geometry": { "type": "Point", "coordinates": [ -77.059713483112006, 38.904112628127805 ] } },
{ "type": "Feature", "properties": { "NAME": null, "ADDRESS": null, "Area_Acres": 0.56664036741799995 }, "geometry": { "type": "Point", "coordinates": [ -77.027653472880161, 38.903930748478793 ] } },
{ "type": "Feature", "properties": { "NAME": null, "ADDRESS": null, "Area_Acres": 0.406381509526 }, "geometry": { "type": "Point", "coordinates": [ -77.05864760959382, 38.904030162952282 ] } },
{ "type": "Feature", "properties": { "NAME": null, "ADDRESS": null, "Area_Acres": 0.61169925372800005 }, "geometry": { "type": "Point", "coordinates": [ -77.026415487302373, 38.903967223561416 ] } },
{ "type": "Feature", "properties": { "NAME": null, "ADDRESS": null, "Area_Acres": 0.21763022433099999 }, "geometry": { "type": "Point", "coordinates": [ -77.01927758824155, 38.904003043463966 ] } },
{ "type": "Feature", "properties": { "NAME": null, "ADDRESS": null, "Area_Acres": 0.23540507196900001 }, "geometry": { "type": "Point", "coordinates": [ -77.057769573860881, 38.903978541035123 ] } },
{ "type": "Feature", "properties": { "NAME": null, "ADDRESS": null, "Area_Acres": 0.27170398653700001 }, "geometry": { "type": "Point", "coordinates": [ -77.054409408742558, 38.903854830094012 ] } },
{ "type": "Feature", "properties": { "NAME": null, "ADDRESS": null, "Area_Acres": 0.186473726349 }, "geometry": { "type": "Point", "coordinates": [ -77.018554074405017, 38.903827142775789 ] } },
{ "type": "Feature", "properties": { "NAME": null, "ADDRESS": null, "Area_Acres": 9.1299306754000007 }, "geometry": { "type": "Point", "coordinates": [ -77.064437188083062, 38.902649093965401 ] } },
{ "type": "Feature", "properties": { "NAME": null, "ADDRESS": null, "Area_Acres": 0.10880671478200001 }, "geometry": { "type": "Point", "coordinates": [ -76.993076109137434, 38.903814745792545 ] } },
{ "type": "Feature", "properties": { "NAME": null, "ADDRESS": null, "Area_Acres": 0.26134846385299998 }, "geometry": { "type": "Point", "coordinates": [ -77.052550319363689, 38.903599928231884 ] } },
{ "type": "Feature", "properties": { "NAME": null, "ADDRESS": null, "Area_Acres": 3.3883237393200001 }, "geometry": { "type": "Point", "coordinates": [ -76.964445504133963, 38.902517193441881 ] } },
{ "type": "Feature", "properties": { "NAME": null, "ADDRESS": null, "Area_Acres": 2.2356377091800002 }, "geometry": { "type": "Point", "coordinates": [ -77.050095378774202, 38.902529096980565 ] } },
{ "type": "Feature", "properties": { "NAME": null, "ADDRESS": null, "Area_Acres": 0.204453804559 }, "geometry": { "type": "Point", "coordinates": [ -77.021626503036046, 38.902725901228138 ] } },
{ "type": "Feature", "properties": { "NAME": null, "ADDRESS": null, "Area_Acres": 0.177972611207 }, "geometry": { "type": "Point", "coordinates": [ -77.024234232113074, 38.902728078153672 ] } },
{ "type": "Feature", "properties": { "NAME": null, "ADDRESS": null, "Area_Acres": 3.1561412661200001 }, "geometry": { "type": "Point", "coordinates": [ -77.02293726664621, 38.902536109469978 ] } },
{ "type": "Feature", "properties": { "NAME": null, "ADDRESS": null, "Area_Acres": 0.164166365871 }, "geometry": { "type": "Point", "coordinates": [ -77.02423558628341, 38.902323208980846 ] } },
{ "type": "Feature", "properties": { "NAME": null, "ADDRESS": null, "Area_Acres": 1.7715452335099999 }, "geometry": { "type": "Point", "coordinates": [ -77.038959067966999, 38.901924441383436 ] } },
{ "type": "Feature", "properties": { "NAME": null, "ADDRESS": null, "Area_Acres": 0.198579644577 }, "geometry": { "type": "Point", "coordinates": [ -77.021636670611201, 38.902289818961265 ] } },
{ "type": "Feature", "properties": { "NAME": null, "ADDRESS": null, "Area_Acres": 5.1414514345500004 }, "geometry": { "type": "Point", "coordinates": [ -77.030781012863571, 38.901922312708642 ] } },
{ "type": "Feature", "properties": { "NAME": null, "ADDRESS": null, "Area_Acres": 1.8192184436400001 }, "geometry": { "type": "Point", "coordinates": [ -77.034110067258041, 38.901920506701565 ] } },
{ "type": "Feature", "properties": { "NAME": null, "ADDRESS": null, "Area_Acres": 0.13555262724299999 }, "geometry": { "type": "Point", "coordinates": [ -76.999212489582433, 38.901428558415127 ] } },
{ "type": "Feature", "properties": { "NAME": null, "ADDRESS": null, "Area_Acres": 0.51948961244400005 }, "geometry": { "type": "Point", "coordinates": [ -77.019454774429107, 38.901075961473893 ] } },
{ "type": "Feature", "properties": { "NAME": null, "ADDRESS": null, "Area_Acres": 0.61034600538999995 }, "geometry": { "type": "Point", "coordinates": [ -77.045381532893927, 38.901135587903489 ] } },
{ "type": "Feature", "properties": { "NAME": null, "ADDRESS": null, "Area_Acres": 0.51644605413900002 }, "geometry": { "type": "Point", "coordinates": [ -77.027660321662523, 38.901132882910737 ] } },
{ "type": "Feature", "properties": { "NAME": null, "ADDRESS": null, "Area_Acres": 2.3043443542099999 }, "geometry": { "type": "Point", "coordinates": [ -77.058041126475217, 38.900388162580775 ] } },
{ "type": "Feature", "properties": { "NAME": null, "ADDRESS": null, "Area_Acres": 0.65930228643900002 }, "geometry": { "type": "Point", "coordinates": [ -77.04618792636056, 38.900884962317519 ] } },
{ "type": "Feature", "properties": { "NAME": null, "ADDRESS": null, "Area_Acres": 0.86268394521400005 }, "geometry": { "type": "Point", "coordinates": [ -76.943535606850773, 38.900150063225361 ] } },
{ "type": "Feature", "properties": { "NAME": null, "ADDRESS": null, "Area_Acres": 0.31059882277 }, "geometry": { "type": "Point", "coordinates": [ -76.942747395056955, 38.900116689281099 ] } },
{ "type": "Feature", "properties": { "NAME": null, "ADDRESS": null, "Area_Acres": 0.17659695411500001 }, "geometry": { "type": "Point", "coordinates": [ -77.030233185587505, 38.900221844554459 ] } },
{ "type": "Feature", "properties": { "NAME": null, "ADDRESS": null, "Area_Acres": 110.170904553 }, "geometry": { "type": "Point", "coordinates": [ -77.062210044627051, 38.895724806988497 ] } },
{ "type": "Feature", "properties": { "NAME": null, "ADDRESS": null, "Area_Acres": 0.22169452146999999 }, "geometry": { "type": "Point", "coordinates": [ -77.030775472478211, 38.900020717947264 ] } },
{ "type": "Feature", "properties": { "NAME": null, "ADDRESS": null, "Area_Acres": 8.1427088894799997 }, "geometry": { "type": "Point", "coordinates": [ -77.036557615739127, 38.899502768453864 ] } },
{ "type": "Feature", "properties": { "NAME": null, "ADDRESS": null, "Area_Acres": 0.55237972793000001 }, "geometry": { "type": "Point", "coordinates": [ -77.04213760973812, 38.899997645349359 ] } },
{ "type": "Feature", "properties": { "NAME": null, "ADDRESS": null, "Area_Acres": 0.70400955727600001 }, "geometry": { "type": "Point", "coordinates": [ -77.042942940729887, 38.899772338208749 ] } },
{ "type": "Feature", "properties": { "NAME": null, "ADDRESS": null, "Area_Acres": 0.95774273143900002 }, "geometry": { "type": "Point", "coordinates": [ -76.942998797844069, 38.899398869370067 ] } },
{ "type": "Feature", "properties": { "NAME": null, "ADDRESS": null, "Area_Acres": 0.238993606262 }, "geometry": { "type": "Point", "coordinates": [ -77.011981289909627, 38.89891024662321 ] } },
{ "type": "Feature", "properties": { "NAME": null, "ADDRESS": null, "Area_Acres": 0.16715242749699999 }, "geometry": { "type": "Point", "coordinates": [ -77.053445042074998, 38.899141635223799 ] } },
{ "type": "Feature", "properties": { "NAME": null, "ADDRESS": null, "Area_Acres": 0.220652624125 }, "geometry": { "type": "Point", "coordinates": [ -76.985790262310104, 38.898988704609962 ] } },
{ "type": "Feature", "properties": { "NAME": null, "ADDRESS": null, "Area_Acres": 0.74739074457900001 }, "geometry": { "type": "Point", "coordinates": [ -76.9429175239259, 38.898716216176489 ] } },
{ "type": "Feature", "properties": { "NAME": null, "ADDRESS": null, "Area_Acres": 0.39178116831299997 }, "geometry": { "type": "Point", "coordinates": [ -77.053541436925784, 38.898716265009604 ] } },
{ "type": "Feature", "properties": { "NAME": null, "ADDRESS": null, "Area_Acres": 0.108830617878 }, "geometry": { "type": "Point", "coordinates": [ -76.987022105889125, 38.898848045478204 ] } },
{ "type": "Feature", "properties": { "NAME": null, "ADDRESS": null, "Area_Acres": 0.12832853164300001 }, "geometry": { "type": "Point", "coordinates": [ -76.987359583478948, 38.89873456371847 ] } },
{ "type": "Feature", "properties": { "NAME": null, "ADDRESS": null, "Area_Acres": 0.192174243139 }, "geometry": { "type": "Point", "coordinates": [ -77.01198526038435, 38.898478605336493 ] } },
{ "type": "Feature", "properties": { "NAME": null, "ADDRESS": null, "Area_Acres": 38.977124417399999 }, "geometry": { "type": "Point", "coordinates": [ -76.944784480559932, 38.895386116905961 ] } },
{ "type": "Feature", "properties": { "NAME": null, "ADDRESS": null, "Area_Acres": 0.122274328108 }, "geometry": { "type": "Point", "coordinates": [ -77.05162172853781, 38.898184562439603 ] } },
{ "type": "Feature", "properties": { "NAME": null, "ADDRESS": null, "Area_Acres": 0.98713578452600004 }, "geometry": { "type": "Point", "coordinates": [ -77.107096938653953, 38.925637166389819 ] } },
{ "type": "Feature", "properties": { "NAME": null, "ADDRESS": null, "Area_Acres": 12.1158876411 }, "geometry": { "type": "Point", "coordinates": [ -77.035742847541954, 38.921029738633457 ] } },
{ "type": "Feature", "properties": { "NAME": null, "ADDRESS": null, "Area_Acres": 1.7799831534099999 }, "geometry": { "type": "Point", "coordinates": [ -77.058079628610201, 38.920761687372412 ] } },
{ "type": "Feature", "properties": { "NAME": null, "ADDRESS": null, "Area_Acres": 0.231658835413 }, "geometry": { "type": "Point", "coordinates": [ -77.025794284045105, 38.920126393294169 ] } },
{ "type": "Feature", "properties": { "NAME": null, "ADDRESS": null, "Area_Acres": 1.1031881773200001 }, "geometry": { "type": "Point", "coordinates": [ -77.099552276293181, 38.91826162739077 ] } },
{ "type": "Feature", "properties": { "NAME": null, "ADDRESS": null, "Area_Acres": 0.31950356718299999 }, "geometry": { "type": "Point", "coordinates": [ -77.047976167764645, 38.918923713348576 ] } },
{ "type": "Feature", "properties": { "NAME": null, "ADDRESS": null, "Area_Acres": 32.6412206611 }, "geometry": { "type": "Point", "coordinates": [ -77.077640933336795, 38.917943965021614 ] } },
{ "type": "Feature", "properties": { "NAME": null, "ADDRESS": null, "Area_Acres": 4.0332367628799997 }, "geometry": { "type": "Point", "coordinates": [ -77.066772484011651, 38.918005159741952 ] } },
{ "type": "Feature", "properties": { "NAME": null, "ADDRESS": null, "Area_Acres": 0.2940276885 }, "geometry": { "type": "Point", "coordinates": [ -77.048571841754637, 38.918599828771882 ] } },
{ "type": "Feature", "properties": { "NAME": null, "ADDRESS": null, "Area_Acres": 25.815646756700001 }, "geometry": { "type": "Point", "coordinates": [ -77.064034106116353, 38.916890854019734 ] } },
{ "type": "Feature", "properties": { "NAME": null, "ADDRESS": null, "Area_Acres": 0.37899468862399999 }, "geometry": { "type": "Point", "coordinates": [ -77.038863631628459, 38.918257548935181 ] } },
{ "type": "Feature", "properties": { "NAME": null, "ADDRESS": null, "Area_Acres": 24.3753880292 }, "geometry": { "type": "Point", "coordinates": [ -77.088323769804788, 38.908244231769615 ] } },
{ "type": "Feature", "properties": { "NAME": null, "ADDRESS": null, "Area_Acres": 0.113910773295 }, "geometry": { "type": "Point", "coordinates": [ -77.036316193286581, 38.917463657939614 ] } },
{ "type": "Feature", "properties": { "NAME": null, "ADDRESS": null, "Area_Acres": 0.809413840941 }, "geometry": { "type": "Point", "coordinates": [ -77.069116800931155, 38.916972525577791 ] } },
{ "type": "Feature", "properties": { "NAME": null, "ADDRESS": null, "Area_Acres": 17.448392483399999 }, "geometry": { "type": "Point", "coordinates": [ -77.082767510607098, 38.915199551025857 ] } },
{ "type": "Feature", "properties": { "NAME": null, "ADDRESS": null, "Area_Acres": 18.191210181900001 }, "geometry": { "type": "Point", "coordinates": [ -77.081076277439465, 38.915064571603082 ] } },
{ "type": "Feature", "properties": { "NAME": null, "ADDRESS": null, "Area_Acres": 5.1834954618299998 }, "geometry": { "type": "Point", "coordinates": [ -76.947436223524221, 38.913286633179005 ] } },
{ "type": "Feature", "properties": { "NAME": null, "ADDRESS": null, "Area_Acres": 0.16569366655000001 }, "geometry": { "type": "Point", "coordinates": [ -77.027300975041001, 38.91350272496458 ] } },
{ "type": "Feature", "properties": { "NAME": null, "ADDRESS": null, "Area_Acres": 0.17940626053600001 }, "geometry": { "type": "Point", "coordinates": [ -77.027273601621147, 38.913187960635462 ] } },
{ "type": "Feature", "properties": { "NAME": null, "ADDRESS": null, "Area_Acres": 0.41096217497300003 }, "geometry": { "type": "Point", "coordinates": [ -77.045062379455032, 38.91304724196322 ] } },
{ "type": "Feature", "properties": { "NAME": null, "ADDRESS": null, "Area_Acres": 0.17386917396000001 }, "geometry": { "type": "Point", "coordinates": [ -77.013958516607858, 38.912728214535981 ] } },
{ "type": "Feature", "properties": { "NAME": null, "ADDRESS": null, "Area_Acres": 31.233554321100002 }, "geometry": { "type": "Point", "coordinates": [ -77.0793059890796, 38.909592818830589 ] } },
{ "type": "Feature", "properties": { "NAME": null, "ADDRESS": null, "Area_Acres": 0.77348007654700002 }, "geometry": { "type": "Point", "coordinates": [ -76.947743076454145, 38.912383816988886 ] } },
{ "type": "Feature", "properties": { "NAME": null, "ADDRESS": null, "Area_Acres": 0.28962928850800002 }, "geometry": { "type": "Point", "coordinates": [ -77.012468712203088, 38.912431049282752 ] } },
{ "type": "Feature", "properties": { "NAME": null, "ADDRESS": null, "Area_Acres": 0.37857561423000002 }, "geometry": { "type": "Point", "coordinates": [ -76.949784042193627, 38.912402495573801 ] } },
{ "type": "Feature", "properties": { "NAME": null, "ADDRESS": null, "Area_Acres": 0.67137209902299999 }, "geometry": { "type": "Point", "coordinates": [ -77.050648344543234, 38.912146322788693 ] } },
{ "type": "Feature", "properties": { "NAME": null, "ADDRESS": null, "Area_Acres": 0.18171799904899999 }, "geometry": { "type": "Point", "coordinates": [ -77.02804751220134, 38.911860150426342 ] } },
{ "type": "Feature", "properties": { "NAME": null, "ADDRESS": null, "Area_Acres": 2.8038790745100002 }, "geometry": { "type": "Point", "coordinates": [ -76.947479935932463, 38.91168110405183 ] } },
{ "type": "Feature", "properties": { "NAME": null, "ADDRESS": null, "Area_Acres": 10.1333566783 }, "geometry": { "type": "Point", "coordinates": [ -76.995171135333905, 38.910929940889247 ] } },
{ "type": "Feature", "properties": { "NAME": null, "ADDRESS": null, "Area_Acres": 0.099552864856299994 }, "geometry": { "type": "Point", "coordinates": [ -77.008846000903006, 38.912031479191775 ] } },
{ "type": "Feature", "properties": { "NAME": null, "ADDRESS": null, "Area_Acres": 0.52863213412200005 }, "geometry": { "type": "Point", "coordinates": [ -76.960805630369165, 38.897398836831542 ] } },
{ "type": "Feature", "properties": { "NAME": null, "ADDRESS": null, "Area_Acres": 0.15380635489200001 }, "geometry": { "type": "Point", "coordinates": [ -77.009485174366446, 38.897460298627159 ] } },
{ "type": "Feature", "properties": { "NAME": null, "ADDRESS": null, "Area_Acres": 0.16820154986999999 }, "geometry": { "type": "Point", "coordinates": [ -76.989515242485695, 38.89745237485559 ] } },
{ "type": "Feature", "properties": { "NAME": null, "ADDRESS": null, "Area_Acres": 189.680692201 }, "geometry": { "type": "Point", "coordinates": [ -76.971624992064775, 38.889704594475667 ] } },
{ "type": "Feature", "properties": { "NAME": null, "ADDRESS": null, "Area_Acres": 0.356822914564 }, "geometry": { "type": "Point", "coordinates": [ -77.049617856075443, 38.897161348134176 ] } },
{ "type": "Feature", "properties": { "NAME": null, "ADDRESS": null, "Area_Acres": 0.38755761640800002 }, "geometry": { "type": "Point", "coordinates": [ -77.011965226832643, 38.896930191363332 ] } },
{ "type": "Feature", "properties": { "NAME": null, "ADDRESS": null, "Area_Acres": 0.32301446663900002 }, "geometry": { "type": "Point", "coordinates": [ -76.991198089477763, 38.897165708015763 ] } },
{ "type": "Feature", "properties": { "NAME": null, "ADDRESS": null, "Area_Acres": 2.2960494436299999 }, "geometry": { "type": "Point", "coordinates": [ -77.017550689305068, 38.896732833231511 ] } },
{ "type": "Feature", "properties": { "NAME": null, "ADDRESS": null, "Area_Acres": 4.5855386919700001 }, "geometry": { "type": "Point", "coordinates": [ -77.006576080432737, 38.896432359715284 ] } },
{ "type": "Feature", "properties": { "NAME": null, "ADDRESS": null, "Area_Acres": 16.2399400541 }, "geometry": { "type": "Point", "coordinates": [ -76.960899268122503, 38.893765438447474 ] } },
{ "type": "Feature", "properties": { "NAME": null, "ADDRESS": null, "Area_Acres": 0.133784456558 }, "geometry": { "type": "Point", "coordinates": [ -77.0263163038356, 38.896706428773278 ] } },
{ "type": "Feature", "properties": { "NAME": null, "ADDRESS": null, "Area_Acres": 0.29298114551999999 }, "geometry": { "type": "Point", "coordinates": [ -77.025622188499327, 38.896628611230582 ] } },
{ "type": "Feature", "properties": { "NAME": null, "ADDRESS": null, "Area_Acres": 0.15021416664000001 }, "geometry": { "type": "Point", "coordinates": [ -76.992431799174426, 38.896262522529462 ] } },
{ "type": "Feature", "properties": { "NAME": null, "ADDRESS": null, "Area_Acres": 2.0355645839399998 }, "geometry": { "type": "Point", "coordinates": [ -77.032855039881099, 38.895920407649271 ] } },
{ "type": "Feature", "properties": { "NAME": null, "ADDRESS": null, "Area_Acres": 0.18158224053499999 }, "geometry": { "type": "Point", "coordinates": [ -76.994069205590762, 38.895991562533219 ] } },
{ "type": "Feature", "properties": { "NAME": null, "ADDRESS": null, "Area_Acres": 0.21162366727099999 }, "geometry": { "type": "Point", "coordinates": [ -77.047819064129257, 38.895717271293755 ] } },
{ "type": "Feature", "properties": { "NAME": null, "ADDRESS": null, "Area_Acres": 0.91460284124799995 }, "geometry": { "type": "Point", "coordinates": [ -77.048318037020962, 38.895665857756725 ] } },
{ "type": "Feature", "properties": { "NAME": null, "ADDRESS": null, "Area_Acres": 1.23175869659 }, "geometry": { "type": "Point", "coordinates": [ -77.044191844148472, 38.895689700626683 ] } },
{ "type": "Feature", "properties": { "NAME": null, "ADDRESS": null, "Area_Acres": 1.6114679139899999 }, "geometry": { "type": "Point", "coordinates": [ -77.042590809243862, 38.895682291107356 ] } },
{ "type": "Feature", "properties": { "NAME": null, "ADDRESS": null, "Area_Acres": 1.8358722242400001 }, "geometry": { "type": "Point", "coordinates": [ -77.045635990918598, 38.895189912278873 ] } },
{ "type": "Feature", "properties": { "NAME": null, "ADDRESS": null, "Area_Acres": 0.65818384760600002 }, "geometry": { "type": "Point", "coordinates": [ -76.995432243867469, 38.894981994806706 ] } },
{ "type": "Feature", "properties": { "NAME": null, "ADDRESS": null, "Area_Acres": 0.80371504115000003 }, "geometry": { "type": "Point", "coordinates": [ -77.046183555631316, 38.894701982843905 ] } },
{ "type": "Feature", "properties": { "NAME": null, "ADDRESS": null, "Area_Acres": 0.18717047941699999 }, "geometry": { "type": "Point", "coordinates": [ -77.003246828809907, 38.894936583406889 ] } },
{ "type": "Feature", "properties": { "NAME": null, "ADDRESS": null, "Area_Acres": 0.16741766521199999 }, "geometry": { "type": "Point", "coordinates": [ -76.997290068636801, 38.894661250944175 ] } },
{ "type": "Feature", "properties": { "NAME": null, "ADDRESS": null, "Area_Acres": 0.178172443554 }, "geometry": { "type": "Point", "coordinates": [ -77.019566003434576, 38.894672826291121 ] } },
{ "type": "Feature", "properties": { "NAME": null, "ADDRESS": null, "Area_Acres": 0.16601426497300001 }, "geometry": { "type": "Point", "coordinates": [ -77.00172694271366, 38.894661466952677 ] } },
{ "type": "Feature", "properties": { "NAME": null, "ADDRESS": null, "Area_Acres": 2.91034968569 }, "geometry": { "type": "Point", "coordinates": [ -77.055391609546547, 38.89378184087974 ] } },
{ "type": "Feature", "properties": { "NAME": null, "ADDRESS": null, "Area_Acres": 2.3117807915499999 }, "geometry": { "type": "Point", "coordinates": [ -77.04546473708578, 38.894126747288595 ] } },
{ "type": "Feature", "properties": { "NAME": null, "ADDRESS": null, "Area_Acres": 0.44611993804799999 }, "geometry": { "type": "Point", "coordinates": [ -77.054450561460285, 38.89396900772109 ] } },
{ "type": "Feature", "properties": { "NAME": null, "ADDRESS": null, "Area_Acres": 3.9055968873700002 }, "geometry": { "type": "Point", "coordinates": [ -76.999508619788173, 38.893573665791429 ] } },
{ "type": "Feature", "properties": { "NAME": null, "ADDRESS": null, "Area_Acres": 0.35488527436299999 }, "geometry": { "type": "Point", "coordinates": [ -77.053368046510343, 38.893668198834085 ] } },
{ "type": "Feature", "properties": { "NAME": null, "ADDRESS": null, "Area_Acres": 0.93612159937200001 }, "geometry": { "type": "Point", "coordinates": [ -77.053755278517571, 38.892433706815297 ] } },
{ "type": "Feature", "properties": { "NAME": null, "ADDRESS": null, "Area_Acres": 1.1204430789099999 }, "geometry": { "type": "Point", "coordinates": [ -77.049505502950268, 38.89243010237125 ] } },
{ "type": "Feature", "properties": { "NAME": null, "ADDRESS": null, "Area_Acres": 0.13705346673800001 }, "geometry": { "type": "Point", "coordinates": [ -76.944872791601355, 38.892524600075078 ] } },
{ "type": "Feature", "properties": { "NAME": null, "ADDRESS": null, "Area_Acres": 0.52985367974300002 }, "geometry": { "type": "Point", "coordinates": [ -77.019420426281101, 38.89232557879285 ] } },
{ "type": "Feature", "properties": { "NAME": null, "ADDRESS": null, "Area_Acres": 0.101751837897 }, "geometry": { "type": "Point", "coordinates": [ -77.041485722651544, 38.892288094874679 ] } },
{ "type": "Feature", "properties": { "NAME": null, "ADDRESS": null, "Area_Acres": 1.02813318512 }, "geometry": { "type": "Point", "coordinates": [ -77.016220450963303, 38.892216561499069 ] } },
{ "type": "Feature", "properties": { "NAME": null, "ADDRESS": null, "Area_Acres": 0.186182677661 }, "geometry": { "type": "Point", "coordinates": [ -76.976429128109544, 38.892203165709667 ] } },
{ "type": "Feature", "properties": { "NAME": null, "ADDRESS": null, "Area_Acres": 0.17011276605299999 }, "geometry": { "type": "Point", "coordinates": [ -76.945191001322527, 38.892190079474389 ] } },
{ "type": "Feature", "properties": { "NAME": null, "ADDRESS": null, "Area_Acres": 0.49445798466800001 }, "geometry": { "type": "Point", "coordinates": [ -76.941792781321766, 38.89206380514225 ] } },
{ "type": "Feature", "properties": { "NAME": null, "ADDRESS": null, "Area_Acres": 0.16525151774800001 }, "geometry": { "type": "Point", "coordinates": [ -77.002472282857639, 38.892095468367096 ] } },
{ "type": "Feature", "properties": { "NAME": null, "ADDRESS": null, "Area_Acres": 0.40053224630599998 }, "geometry": { "type": "Point", "coordinates": [ -77.018378869474702, 38.892047949391817 ] } },
{ "type": "Feature", "properties": { "NAME": null, "ADDRESS": null, "Area_Acres": 0.17774765357899999 }, "geometry": { "type": "Point", "coordinates": [ -76.940842742681141, 38.892001222525501 ] } },
{ "type": "Feature", "properties": { "NAME": null, "ADDRESS": null, "Area_Acres": 89.443387161000004 }, "geometry": { "type": "Point", "coordinates": [ -77.026622033405744, 38.889954385513697 ] } },
{ "type": "Feature", "properties": { "NAME": null, "ADDRESS": null, "Area_Acres": 0.34582330143500001 }, "geometry": { "type": "Point", "coordinates": [ -77.015563821423441, 38.891823903468406 ] } },
{ "type": "Feature", "properties": { "NAME": null, "ADDRESS": null, "Area_Acres": 42.253801445400001 }, "geometry": { "type": "Point", "coordinates": [ -77.019707120056097, 38.889817808405198 ] } },
{ "type": "Feature", "properties": { "NAME": null, "ADDRESS": null, "Area_Acres": 18.7953713502 }, "geometry": { "type": "Point", "coordinates": [ -77.016439338472807, 38.88976139953003 ] } },
{ "type": "Feature", "properties": { "NAME": null, "ADDRESS": null, "Area_Acres": 0.16835619428599999 }, "geometry": { "type": "Point", "coordinates": [ -77.004578457674228, 38.891804470505114 ] } },
{ "type": "Feature", "properties": { "NAME": null, "ADDRESS": null, "Area_Acres": 0.21466739825799999 }, "geometry": { "type": "Point", "coordinates": [ -77.004259653005974, 38.891723727854199 ] } },
{ "type": "Feature", "properties": { "NAME": null, "ADDRESS": null, "Area_Acres": 0.326437189184 }, "geometry": { "type": "Point", "coordinates": [ -76.945770247984001, 38.891691886523127 ] } },
{ "type": "Feature", "properties": { "NAME": null, "ADDRESS": null, "Area_Acres": 0.25997879959999998 }, "geometry": { "type": "Point", "coordinates": [ -76.946165755215148, 38.891225229420066 ] } },
{ "type": "Feature", "properties": { "NAME": null, "ADDRESS": null, "Area_Acres": 13.195031720099999 }, "geometry": { "type": "Point", "coordinates": [ -77.013942368889914, 38.889793824938621 ] } },
{ "type": "Feature", "properties": { "NAME": null, "ADDRESS": null, "Area_Acres": 10.048771460899999 }, "geometry": { "type": "Point", "coordinates": [ -76.971922551085513, 38.889782435173842 ] } },
{ "type": "Feature", "properties": { "NAME": null, "ADDRESS": null, "Area_Acres": 7.7105434957699996 }, "geometry": { "type": "Point", "coordinates": [ -76.989915989447184, 38.889793147187007 ] } },
{ "type": "Feature", "properties": { "NAME": null, "ADDRESS": null, "Area_Acres": 3.14714664153 }, "geometry": { "type": "Point", "coordinates": [ -76.97531677420713, 38.889793375052058 ] } },
{ "type": "Feature", "properties": { "NAME": null, "ADDRESS": null, "Area_Acres": 34.428946745300003 }, "geometry": { "type": "Point", "coordinates": [ -76.943380990287778, 38.88829626658633 ] } },
{ "type": "Feature", "properties": { "NAME": null, "ADDRESS": null, "Area_Acres": 37.608692966 }, "geometry": { "type": "Point", "coordinates": [ -76.965252380961275, 38.88447524808862 ] } },
{ "type": "Feature", "properties": { "NAME": null, "ADDRESS": null, "Area_Acres": 4.8281029666500004 }, "geometry": { "type": "Point", "coordinates": [ -76.945916524283035, 38.887886879674106 ] } },
{ "type": "Feature", "properties": { "NAME": null, "ADDRESS": null, "Area_Acres": 7.6643107544599998 }, "geometry": { "type": "Point", "coordinates": [ -76.975395205310789, 38.888561014288157 ] } },
{ "type": "Feature", "properties": { "NAME": null, "ADDRESS": null, "Area_Acres": 0.54052608083700004 }, "geometry": { "type": "Point", "coordinates": [ -77.015671991674381, 38.887814406011437 ] } },
{ "type": "Feature", "properties": { "NAME": null, "ADDRESS": null, "Area_Acres": 0.17802856745500001 }, "geometry": { "type": "Point", "coordinates": [ -77.002992029499765, 38.88745419513964 ] } },
{ "type": "Feature", "properties": { "NAME": null, "ADDRESS": null, "Area_Acres": 0.195173701522 }, "geometry": { "type": "Point", "coordinates": [ -76.988823096972055, 38.881384036534484 ] } },
{ "type": "Feature", "properties": { "NAME": null, "ADDRESS": null, "Area_Acres": 64.890854110199996 }, "geometry": { "type": "Point", "coordinates": [ -76.969505798586781, 38.878560981262133 ] } },
{ "type": "Feature", "properties": { "NAME": null, "ADDRESS": null, "Area_Acres": 0.15035662658599999 }, "geometry": { "type": "Point", "coordinates": [ -76.987992402667174, 38.881349161323989 ] } },
{ "type": "Feature", "properties": { "NAME": null, "ADDRESS": null, "Area_Acres": 0.59619624771199997 }, "geometry": { "type": "Point", "coordinates": [ -76.986872413458599, 38.880883942886832 ] } },
{ "type": "Feature", "properties": { "NAME": null, "ADDRESS": null, "Area_Acres": 0.12010117740200001 }, "geometry": { "type": "Point", "coordinates": [ -76.986889201145644, 38.881149555575519 ] } },
{ "type": "Feature", "properties": { "NAME": null, "ADDRESS": null, "Area_Acres": 0.17071514329000001 }, "geometry": { "type": "Point", "coordinates": [ -76.985156479809405, 38.880453220501657 ] } },
{ "type": "Feature", "properties": { "NAME": null, "ADDRESS": null, "Area_Acres": 0.25836700312400002 }, "geometry": { "type": "Point", "coordinates": [ -76.98551193893762, 38.88032794628549 ] } },
{ "type": "Feature", "properties": { "NAME": null, "ADDRESS": null, "Area_Acres": 0.14002120157199999 }, "geometry": { "type": "Point", "coordinates": [ -76.985892146307918, 38.880186708715662 ] } },
{ "type": "Feature", "properties": { "NAME": null, "ADDRESS": null, "Area_Acres": 0.40454389125399998 }, "geometry": { "type": "Point", "coordinates": [ -76.984371595857908, 38.879863645470969 ] } },
{ "type": "Feature", "properties": { "NAME": null, "ADDRESS": null, "Area_Acres": 0.31412966734999997 }, "geometry": { "type": "Point", "coordinates": [ -77.035941457754305, 38.879587958236776 ] } },
{ "type": "Feature", "properties": { "NAME": null, "ADDRESS": null, "Area_Acres": 0.18942805916800001 }, "geometry": { "type": "Point", "coordinates": [ -77.000328961398154, 38.879457748322466 ] } },
{ "type": "Feature", "properties": { "NAME": null, "ADDRESS": null, "Area_Acres": 0.61015267014999996 }, "geometry": { "type": "Point", "coordinates": [ -76.982642071819654, 38.879159304773644 ] } },
{ "type": "Feature", "properties": { "NAME": null, "ADDRESS": null, "Area_Acres": 0.37158069216799999 }, "geometry": { "type": "Point", "coordinates": [ -77.038429841554787, 38.879119525671086 ] } },
{ "type": "Feature", "properties": { "NAME": null, "ADDRESS": null, "Area_Acres": 0.156126501167 }, "geometry": { "type": "Point", "coordinates": [ -76.999877052936554, 38.879282826161429 ] } },
{ "type": "Feature", "properties": { "NAME": null, "ADDRESS": null, "Area_Acres": 1.7497107458900001 }, "geometry": { "type": "Point", "coordinates": [ -77.017587433424154, 38.878874610522587 ] } },
{ "type": "Feature", "properties": { "NAME": null, "ADDRESS": null, "Area_Acres": 0.843607421345 }, "geometry": { "type": "Point", "coordinates": [ -77.015718543924024, 38.878999507892864 ] } },
{ "type": "Feature", "properties": { "NAME": null, "ADDRESS": null, "Area_Acres": 1.43857880892 }, "geometry": { "type": "Point", "coordinates": [ -77.019368189432043, 38.878838707395929 ] } },
{ "type": "Feature", "properties": { "NAME": null, "ADDRESS": null, "Area_Acres": 3.0220122948400001 }, "geometry": { "type": "Point", "coordinates": [ -77.037742233067107, 38.878540355402222 ] } },
{ "type": "Feature", "properties": { "NAME": null, "ADDRESS": null, "Area_Acres": 4.9779462579100002 }, "geometry": { "type": "Point", "coordinates": [ -77.036401995949348, 38.878036470248837 ] } },
{ "type": "Feature", "properties": { "NAME": null, "ADDRESS": null, "Area_Acres": 0.53546636892199995 }, "geometry": { "type": "Point", "coordinates": [ -76.99689816656705, 38.878568136502615 ] } },
{ "type": "Feature", "properties": { "NAME": null, "ADDRESS": null, "Area_Acres": 0.39498819542699998 }, "geometry": { "type": "Point", "coordinates": [ -76.994241554259702, 38.876678883437663 ] } },
{ "type": "Feature", "properties": { "NAME": null, "ADDRESS": null, "Area_Acres": 0.52811275305299998 }, "geometry": { "type": "Point", "coordinates": [ -76.989061052054723, 38.876593666025201 ] } },
{ "type": "Feature", "properties": { "NAME": null, "ADDRESS": null, "Area_Acres": 1.0136921083999999 }, "geometry": { "type": "Point", "coordinates": [ -76.985304436323929, 38.876286035632724 ] } },
{ "type": "Feature", "properties": { "NAME": null, "ADDRESS": null, "Area_Acres": 0.65266747832100003 }, "geometry": { "type": "Point", "coordinates": [ -76.98834443704078, 38.876232791532587 ] } },
{ "type": "Feature", "properties": { "NAME": null, "ADDRESS": null, "Area_Acres": 40.6396045097 }, "geometry": { "type": "Point", "coordinates": [ -76.982710788490394, 38.87293300477922 ] } },
{ "type": "Feature", "properties": { "NAME": null, "ADDRESS": null, "Area_Acres": 3.8761898713799998 }, "geometry": { "type": "Point", "coordinates": [ -77.01957691422804, 38.873187992841203 ] } },
{ "type": "Feature", "properties": { "NAME": null, "ADDRESS": null, "Area_Acres": 0.18081591095300001 }, "geometry": { "type": "Point", "coordinates": [ -76.986571980143069, 38.875527647300117 ] } },
{ "type": "Feature", "properties": { "NAME": null, "ADDRESS": null, "Area_Acres": 0.32305452376100002 }, "geometry": { "type": "Point", "coordinates": [ -76.972169312504036, 38.874176535597414 ] } },
{ "type": "Feature", "properties": { "NAME": null, "ADDRESS": null, "Area_Acres": 0.34505497929899998 }, "geometry": { "type": "Point", "coordinates": [ -76.970797509785683, 38.874126984562778 ] } },
{ "type": "Feature", "properties": { "NAME": null, "ADDRESS": null, "Area_Acres": 0.58172262586400003 }, "geometry": { "type": "Point", "coordinates": [ -76.970567198535988, 38.873817713743598 ] } },
{ "type": "Feature", "properties": { "NAME": null, "ADDRESS": null, "Area_Acres": 0.40697819365400001 }, "geometry": { "type": "Point", "coordinates": [ -76.971362504920904, 38.87331598421428 ] } },
{ "type": "Feature", "properties": { "NAME": null, "ADDRESS": null, "Area_Acres": 1.6090401222899999 }, "geometry": { "type": "Point", "coordinates": [ -76.99073024955733, 38.87283692876823 ] } },
{ "type": "Feature", "properties": { "NAME": null, "ADDRESS": null, "Area_Acres": 0.67327263068400001 }, "geometry": { "type": "Point", "coordinates": [ -76.968229004206108, 38.87271216899029 ] } },
{ "type": "Feature", "properties": { "NAME": null, "ADDRESS": null, "Area_Acres": 27.361099204599999 }, "geometry": { "type": "Point", "coordinates": [ -76.949582856318528, 38.869650968239064 ] } },
{ "type": "Feature", "properties": { "NAME": null, "ADDRESS": null, "Area_Acres": 94.1378002931 }, "geometry": { "type": "Point", "coordinates": [ -76.995691064556638, 38.86721804773471 ] } },
{ "type": "Feature", "properties": { "NAME": null, "ADDRESS": null, "Area_Acres": 0.22106831451799999 }, "geometry": { "type": "Point", "coordinates": [ -77.009209864670552, 38.869142577032392 ] } },
{ "type": "Feature", "properties": { "NAME": null, "ADDRESS": null, "Area_Acres": 35.187351834899999 }, "geometry": { "type": "Point", "coordinates": [ -76.963739071177244, 38.866687629256326 ] } },
{ "type": "Feature", "properties": { "NAME": null, "ADDRESS": null, "Area_Acres": 31.2975838003 }, "geometry": { "type": "Point", "coordinates": [ -76.956150582942016, 38.866242137907776 ] } },
{ "type": "Feature", "properties": { "NAME": null, "ADDRESS": null, "Area_Acres": 1.6878908534299999 }, "geometry": { "type": "Point", "coordinates": [ -76.952823767390854, 38.867007883939472 ] } },
{ "type": "Feature", "properties": { "NAME": null, "ADDRESS": null, "Area_Acres": 10.456114400500001 }, "geometry": { "type": "Point", "coordinates": [ -76.951323577007514, 38.866882582772718 ] } },
{ "type": "Feature", "properties": { "NAME": null, "ADDRESS": null, "Area_Acres": 8.4121574438300009 }, "geometry": { "type": "Point", "coordinates": [ -76.968975023902118, 38.866849478923506 ] } },
{ "type": "Feature", "properties": { "NAME": null, "ADDRESS": null, "Area_Acres": 19.844963885599999 }, "geometry": { "type": "Point", "coordinates": [ -76.971893334395645, 38.86535522240807 ] } },
{ "type": "Feature", "properties": { "NAME": null, "ADDRESS": null, "Area_Acres": 0.36102931211400002 }, "geometry": { "type": "Point", "coordinates": [ -77.010476193099151, 38.86693984380198 ] } },
{ "type": "Feature", "properties": { "NAME": null, "ADDRESS": null, "Area_Acres": 0.34097672186599998 }, "geometry": { "type": "Point", "coordinates": [ -76.951907767451644, 38.865580978193826 ] } },
{ "type": "Feature", "properties": { "NAME": null, "ADDRESS": null, "Area_Acres": 12.420409401900001 }, "geometry": { "type": "Point", "coordinates": [ -77.014076829835602, 38.863604977605128 ] } },
{ "type": "Feature", "properties": { "NAME": null, "ADDRESS": null, "Area_Acres": 8.9450177032500005 }, "geometry": { "type": "Point", "coordinates": [ -76.985067422453071, 38.862947301414387 ] } },
{ "type": "Feature", "properties": { "NAME": null, "ADDRESS": null, "Area_Acres": 22.577645736200001 }, "geometry": { "type": "Point", "coordinates": [ -76.976121084509629, 38.862472610546888 ] } },
{ "type": "Feature", "properties": { "NAME": null, "ADDRESS": null, "Area_Acres": 54.295739277800003 }, "geometry": { "type": "Point", "coordinates": [ -76.97912246803979, 38.859877251086914 ] } },
{ "type": "Feature", "properties": { "NAME": null, "ADDRESS": null, "Area_Acres": 4.6118942612799998 }, "geometry": { "type": "Point", "coordinates": [ -76.974385907853986, 38.859321896233965 ] } },
{ "type": "Feature", "properties": { "NAME": null, "ADDRESS": null, "Area_Acres": 9.8811547228799999 }, "geometry": { "type": "Point", "coordinates": [ -76.975453175691825, 38.857781598522912 ] } },
{ "type": "Feature", "properties": { "NAME": null, "ADDRESS": null, "Area_Acres": 15.820257976200001 }, "geometry": { "type": "Point", "coordinates": [ -76.97654799566628, 38.855497792971896 ] } },
{ "type": "Feature", "properties": { "NAME": null, "ADDRESS": null, "Area_Acres": 13.305668005799999 }, "geometry": { "type": "Point", "coordinates": [ -76.97873488914297, 38.852841684082264 ] } },
{ "type": "Feature", "properties": { "NAME": null, "ADDRESS": null, "Area_Acres": 45.391872587999998 }, "geometry": { "type": "Point", "coordinates": [ -77.004796597675934, 38.84905060074329 ] } },
{ "type": "Feature", "properties": { "NAME": null, "ADDRESS": null, "Area_Acres": 3.1030130843100001 }, "geometry": { "type": "Point", "coordinates": [ -76.983608036584982, 38.85099343592502 ] } },
{ "type": "Feature", "properties": { "NAME": null, "ADDRESS": null, "Area_Acres": 3.6486516521399999 }, "geometry": { "type": "Point", "coordinates": [ -76.988013588580742, 38.845494294042808 ] } },
{ "type": "Feature", "properties": { "NAME": null, "ADDRESS": null, "Area_Acres": 40.603122382599999 }, "geometry": { "type": "Point", "coordinates": [ -77.006275465944867, 38.841706922293078 ] } },
{ "type": "Feature", "properties": { "NAME": null, "ADDRESS": null, "Area_Acres": 2.98266550073 }, "geometry": { "type": "Point", "coordinates": [ -76.999912402579398, 38.844853236275632 ] } },
{ "type": "Feature", "properties": { "NAME": null, "ADDRESS": null, "Area_Acres": 96.040373259800006 }, "geometry": { "type": "Point", "coordinates": [ -76.982397922564019, 38.839641833475852 ] } },
{ "type": "Feature", "properties": { "NAME": null, "ADDRESS": null, "Area_Acres": 35.607866033000001 }, "geometry": { "type": "Point", "coordinates": [ -77.011768412811264, 38.833382727305711 ] } },
{ "type": "Feature", "properties": { "NAME": null, "ADDRESS": null, "Area_Acres": 0.17113250499300001 }, "geometry": { "type": "Point", "coordinates": [ -77.01740986023168, 38.828691786147239 ] } },
{ "type": "Feature", "properties": { "NAME": null, "ADDRESS": null, "Area_Acres": 29.870480151700001 }, "geometry": { "type": "Point", "coordinates": [ -77.014551998266498, 38.824800090686587 ] } },
{ "type": "Feature", "properties": { "NAME": null, "ADDRESS": null, "Area_Acres": 1.6432842083600001 }, "geometry": { "type": "Point", "coordinates": [ -77.017518739572992, 38.826288665554827 ] } },
{ "type": "Feature", "properties": { "NAME": null, "ADDRESS": null, "Area_Acres": 0.26821172719800002 }, "geometry": { "type": "Point", "coordinates": [ -77.017529073533794, 38.823894688391619 ] } },
{ "type": "Feature", "properties": { "NAME": null, "ADDRESS": null, "Area_Acres": 24.858472126199999 }, "geometry": { "type": "Point", "coordinates": [ -77.008078044779836, 38.818203978863068 ] } },
{ "type": "Feature", "properties": { "NAME": null, "ADDRESS": null, "Area_Acres": 0.36297857035499997 }, "geometry": { "type": "Point", "coordinates": [ -76.989351926339495, 38.874163067536443 ] } },
{ "type": "Feature", "properties": { "NAME": null, "ADDRESS": null, "Area_Acres": 0.18017215056200001 }, "geometry": { "type": "Point", "coordinates": [ -76.930551721016215, 38.8896042194649 ] } },
{ "type": "Feature", "properties": { "NAME": null, "ADDRESS": null, "Area_Acres": 2.1992072357199999 }, "geometry": { "type": "Point", "coordinates": [ -77.011556077810141, 38.864215142385788 ] } },
{ "type": "Feature", "properties": { "NAME": null, "ADDRESS": null, "Area_Acres": 0.19594888600599999 }, "geometry": { "type": "Point", "coordinates": [ -77.010697971592649, 38.864863826823424 ] } },
{ "type": "Feature", "properties": { "NAME": null, "ADDRESS": null, "Area_Acres": 1.01941853972 }, "geometry": { "type": "Point", "coordinates": [ -77.01039990193911, 38.865639976293572 ] } },
{ "type": "Feature", "properties": { "NAME": null, "ADDRESS": null, "Area_Acres": 18.143926824699999 }, "geometry": { "type": "Point", "coordinates": [ -77.004733167414102, 38.952472197943294 ] } },
{ "type": "Feature", "properties": { "NAME": null, "ADDRESS": null, "Area_Acres": 2.8297330861900001 }, "geometry": { "type": "Point", "coordinates": [ -77.005455110166707, 38.954722956226547 ] } },
{ "type": "Feature", "properties": { "NAME": null, "ADDRESS": null, "Area_Acres": 54.397355430399998 }, "geometry": { "type": "Point", "coordinates": [ -76.949802714767841, 38.915635305670676 ] } },
{ "type": "Feature", "properties": { "NAME": null, "ADDRESS": null, "Area_Acres": 86.647878280499995 }, "geometry": { "type": "Point", "coordinates": [ -77.036557703786926, 38.895405241148723 ] } },
{ "type": "Feature", "properties": { "NAME": null, "ADDRESS": null, "Area_Acres": 108.290858746 }, "geometry": { "type": "Point", "coordinates": [ -77.035604716271095, 38.888806118047938 ] } },
{ "type": "Feature", "properties": { "NAME": null, "ADDRESS": null, "Area_Acres": 241.736137079 }, "geometry": { "type": "Point", "coordinates": [ -77.046021009365788, 38.888089176090155 ] } },
{ "type": "Feature", "properties": { "NAME": null, "ADDRESS": null, "Area_Acres": 0.40792635010799999 }, "geometry": { "type": "Point", "coordinates": [ -77.026454574957029, 38.901066540145948 ] } },
{ "type": "Feature", "properties": { "NAME": null, "ADDRESS": null, "Area_Acres": 0.191617446898 }, "geometry": { "type": "Point", "coordinates": [ -77.015926351857644, 38.908183987559802 ] } },
{ "type": "Feature", "properties": { "NAME": null, "ADDRESS": null, "Area_Acres": 0.29003607914700003 }, "geometry": { "type": "Point", "coordinates": [ -77.015311994970091, 38.907548383806613 ] } },
{ "type": "Feature", "properties": { "NAME": null, "ADDRESS": null, "Area_Acres": 0.151469444176 }, "geometry": { "type": "Point", "coordinates": [ -77.012321038859952, 38.888980949739725 ] } },
{ "type": "Feature", "properties": { "NAME": null, "ADDRESS": null, "Area_Acres": 0.15543268712899999 }, "geometry": { "type": "Point", "coordinates": [ -77.012324018651938, 38.890638694416829 ] } },
{ "type": "Feature", "properties": { "NAME": null, "ADDRESS": null, "Area_Acres": 0.24082937546800001 }, "geometry": { "type": "Point", "coordinates": [ -77.080470229583327, 38.95876407949855 ] } },
{ "type": "Feature", "properties": { "NAME": null, "ADDRESS": null, "Area_Acres": 0.101894678637 }, "geometry": { "type": "Point", "coordinates": [ -77.076344050042692, 38.967701613579187 ] } },
{ "type": "Feature", "properties": { "NAME": null, "ADDRESS": null, "Area_Acres": 173.96795540299999 }, "geometry": { "type": "Point", "coordinates": [ -77.054030746089836, 38.914530273399748 ] } },
{ "type": "Feature", "properties": { "NAME": null, "ADDRESS": null, "Area_Acres": 1.2189136942200001 }, "geometry": { "type": "Point", "coordinates": [ -77.056433798446037, 38.92005063508028 ] } },
{ "type": "Feature", "properties": { "NAME": null, "ADDRESS": null, "Area_Acres": 138.38846486 }, "geometry": { "type": "Point", "coordinates": [ -77.056504021758741, 38.882799994457905 ] } },
{ "type": "Feature", "properties": { "NAME": null, "ADDRESS": null, "Area_Acres": 4.3537018975299997 }, "geometry": { "type": "Point", "coordinates": [ -77.05427252863646, 38.934324085986205 ] } },
{ "type": "Feature", "properties": { "NAME": null, "ADDRESS": null, "Area_Acres": 0.63174673099599998 }, "geometry": { "type": "Point", "coordinates": [ -77.019206096094877, 38.978569923955803 ] } },
{ "type": "Feature", "properties": { "NAME": null, "ADDRESS": null, "Area_Acres": 0.236427179603 }, "geometry": { "type": "Point", "coordinates": [ -77.018769344000063, 38.977956135580506 ] } },
{ "type": "Feature", "properties": { "NAME": null, "ADDRESS": null, "Area_Acres": 0.18634626253700001 }, "geometry": { "type": "Point", "coordinates": [ -77.069997466091621, 38.944569207656052 ] } },
{ "type": "Feature", "properties": { "NAME": null, "ADDRESS": null, "Area_Acres": 12.6628105929 }, "geometry": { "type": "Point", "coordinates": [ -76.985527665677026, 38.875502249805258 ] } },
{ "type": "Feature", "properties": { "NAME": null, "ADDRESS": null, "Area_Acres": 7.1203463019899997 }, "geometry": { "type": "Point", "coordinates": [ -76.976653940997352, 38.878495120405518 ] } },
{ "type": "Feature", "properties": { "NAME": null, "ADDRESS": null, "Area_Acres": 0.322954423868 }, "geometry": { "type": "Point", "coordinates": [ -76.995366327104847, 38.883872610940266 ] } },
{ "type": "Feature", "properties": { "NAME": null, "ADDRESS": null, "Area_Acres": 0.86242645447099997 }, "geometry": { "type": "Point", "coordinates": [ -76.995768174794918, 38.884087203840373 ] } },
{ "type": "Feature", "properties": { "NAME": null, "ADDRESS": null, "Area_Acres": 0.50089802372199999 }, "geometry": { "type": "Point", "coordinates": [ -76.994069458948417, 38.8841806397322 ] } },
{ "type": "Feature", "properties": { "NAME": null, "ADDRESS": null, "Area_Acres": 0.59823165014500002 }, "geometry": { "type": "Point", "coordinates": [ -76.994419103542242, 38.88441906246657 ] } },
{ "type": "Feature", "properties": { "NAME": null, "ADDRESS": null, "Area_Acres": 4.8998802533000001 }, "geometry": { "type": "Point", "coordinates": [ -77.023480747326957, 38.804490599450261 ] } },
{ "type": "Feature", "properties": { "NAME": null, "ADDRESS": null, "Area_Acres": 1.4454050994700001 }, "geometry": { "type": "Point", "coordinates": [ -77.021707835380042, 38.805569959134246 ] } },
{ "type": "Feature", "properties": { "NAME": null, "ADDRESS": null, "Area_Acres": 42.247112979599997 }, "geometry": { "type": "Point", "coordinates": [ -77.018794702100109, 38.811061393963655 ] } },
{ "type": "Feature", "properties": { "NAME": null, "ADDRESS": null, "Area_Acres": 9.47711385763 }, "geometry": { "type": "Point", "coordinates": [ -77.005172652308872, 38.82037089145026 ] } },
{ "type": "Feature", "properties": { "NAME": null, "ADDRESS": null, "Area_Acres": 12.9013481192 }, "geometry": { "type": "Point", "coordinates": [ -77.008770676230498, 38.816125708596978 ] } },
{ "type": "Feature", "properties": { "NAME": null, "ADDRESS": null, "Area_Acres": 6.6341392369000003 }, "geometry": { "type": "Point", "coordinates": [ -76.941427571770603, 38.917200488596691 ] } },
{ "type": "Feature", "properties": { "NAME": null, "ADDRESS": null, "Area_Acres": 288.63131094099998 }, "geometry": { "type": "Point", "coordinates": [ -76.950065777532828, 38.908713650030457 ] } },
{ "type": "Feature", "properties": { "NAME": null, "ADDRESS": null, "Area_Acres": 22.1575882892 }, "geometry": { "type": "Point", "coordinates": [ -76.944647228138265, 38.919029355095319 ] } },
{ "type": "Feature", "properties": { "NAME": null, "ADDRESS": null, "Area_Acres": 16.4732704601 }, "geometry": { "type": "Point", "coordinates": [ -76.984375400379903, 38.950867341434481 ] } },
{ "type": "Feature", "properties": { "NAME": null, "ADDRESS": null, "Area_Acres": 19.994231799800001 }, "geometry": { "type": "Point", "coordinates": [ -77.043715108730339, 38.990983253452661 ] } },
{ "type": "Feature", "properties": { "NAME": null, "ADDRESS": null, "Area_Acres": 1774.14334975 }, "geometry": { "type": "Point", "coordinates": [ -77.046106833062439, 38.962751867303453 ] } },
{ "type": "Feature", "properties": { "NAME": "Fort Stanton", "ADDRESS": "north of Erie St., between Pearson Pl. and 16th St., SE", "Area_Acres": 2.5531817758000002 }, "geometry": { "type": "Point", "coordinates": [ -76.978993816102204, 38.859525241362988 ] } },
{ "type": "Feature", "properties": { "NAME": "Keene Park", "ADDRESS": "Ft. Totten Park to Barnard Hill, east of Blair Rd. and Gallati", "Area_Acres": 0.488492329409 }, "geometry": { "type": "Point", "coordinates": [ -77.006313221250977, 38.953706121641794 ] } },
{ "type": "Feature", "properties": { "NAME": null, "ADDRESS": "Texas Ave. and C St., SE", "Area_Acres": 0.28369064254600002 }, "geometry": { "type": "Point", "coordinates": [ -76.941328509814937, 38.887460329941426 ] } },
{ "type": "Feature", "properties": { "NAME": "Rose Park", "ADDRESS": "Along Rock Creek , between National Zoological Park and Theo Roosevelt Bridge.", "Area_Acres": 1.06821967562 }, "geometry": { "type": "Point", "coordinates": [ -77.054890019731928, 38.907925873099721 ] } },
{ "type": "Feature", "properties": { "NAME": "NJ and O Sts Park", "ADDRESS": "1301 New Jersey Avenue, NW", "Area_Acres": 0.409404653206 }, "geometry": { "type": "Point", "coordinates": [ -77.016095377780559, 38.908112052306997 ] } },
{ "type": "Feature", "properties": { "NAME": "Fort Reno", "ADDRESS": "Chesapeake St. and Belt Rd., NW", "Area_Acres": 6.8889339681899999 }, "geometry": { "type": "Point", "coordinates": [ -77.079094279152486, 38.951663649776471 ] } },
{ "type": "Feature", "properties": { "NAME": "Fort Reno", "ADDRESS": "Chesapeake St. and Belt Rd., NW", "Area_Acres": 2.4311148438200001 }, "geometry": { "type": "Point", "coordinates": [ -77.077617013668529, 38.951320651265192 ] } },
{ "type": "Feature", "properties": { "NAME": "Fort Reno", "ADDRESS": "Chesapeake St. and Belt Rd., NW", "Area_Acres": 1.23175482651 }, "geometry": { "type": "Point", "coordinates": [ -77.077214354268094, 38.951011957055904 ] } },
{ "type": "Feature", "properties": { "NAME": "Kenilworth-Parkside", "ADDRESS": "Anacostia Ave. and Polk St., NE", "Area_Acres": 30.231549329900002 }, "geometry": { "type": "Point", "coordinates": [ -76.944968251899169, 38.908051767978932 ] } },
{ "type": "Feature", "properties": { "NAME": "Anacostia Fitness Center", "ADDRESS": "1800 Anacostia Dr., SE", "Area_Acres": 14.0187567306 }, "geometry": { "type": "Point", "coordinates": [ -76.982105990884008, 38.873156077570208 ] } },
{ "type": "Feature", "properties": { "NAME": "Francis", "ADDRESS": "25th and N Sts., NW", "Area_Acres": 9.56111142548 }, "geometry": { "type": "Point", "coordinates": [ -77.051844192801923, 38.907802314521788 ] } },
{ "type": "Feature", "properties": { "NAME": null, "ADDRESS": "700 Blk Missouri Ave, 5700 Blk 7th,  and 700 Blk Madison Streets, NW", "Area_Acres": 0.76008508527399998 }, "geometry": { "type": "Point", "coordinates": [ -77.021933298389428, 38.958741654828529 ] } },
{ "type": "Feature", "properties": { "NAME": null, "ADDRESS": "Nevada Ave, Chapel and Broadbranch Roads, NW", "Area_Acres": 0.17656451145099999 }, "geometry": { "type": "Point", "coordinates": [ -77.065510129812012, 38.958692624380646 ] } },
{ "type": "Feature", "properties": { "NAME": "Oxon Run Park", "ADDRESS": "Mississippi Ave., between 1st St. and Southern Ave., SE", "Area_Acres": 2.7826545396600002 }, "geometry": { "type": "Point", "coordinates": [ -76.978662758593273, 38.841802673286324 ] } },
{ "type": "Feature", "properties": { "NAME": "Oxon Run Park", "ADDRESS": "Mississippi Ave., between 1st St. and Southern Ave., SE", "Area_Acres": 3.0429878353499999 }, "geometry": { "type": "Point", "coordinates": [ -77.004821346674561, 38.819647643757754 ] } },
{ "type": "Feature", "properties": { "NAME": "Parkside Recreation Center", "ADDRESS": "Anacostia Ave. and Hayes St., SE", "Area_Acres": 3.7246633786799999 }, "geometry": { "type": "Point", "coordinates": [ -76.951385090917086, 38.902144409533058 ] } },
{ "type": "Feature", "properties": { "NAME": "Virginia Avenue", "ADDRESS": "E St., 21st St., and Virginia Ave., NW", "Area_Acres": 0.56909025117800005 }, "geometry": { "type": "Point", "coordinates": [ -77.047075275880132, 38.89581448818749 ] } },
{ "type": "Feature", "properties": { "NAME": "Bannaker Circle", "ADDRESS": "10th St. at Bannaker Circle, SW", "Area_Acres": 0.428374422935 }, "geometry": { "type": "Point", "coordinates": [ -77.025983780853238, 38.881709318213446 ] } }
]
}
